"","city","Country","stateProvince","Latitude","Longitude"
"1","Yellowstone National Park","US","WY",44.1349,-110.6663
"2","Wyoming","US","WY",NA,NA
"3","Wright","US","WY",43.7614,-105.4861
"4","Worland","US","WY",44.0168,-107.9549
"5","Wheatland","US","WY",42.0548,-104.9532
"6","Weston","US","WY",44.7087,-105.3712
"7","Wamsutter","US","WY",41.6733,-107.9786
"8","Urie","US","WY",NA,NA
"9","Torrington","US","WY",42.0646,-104.1888
"10","Thermopolis","US","WY",43.6467,-108.2119
"11","Sundance","US","WY",44.4061,-104.3749
"12","Shoshoni","US","WY",43.2355,-108.1098
"13","Sheridan","US","WY",44.7977,-106.9559
"14","Savery","US","WY",41.0266,-107.4728
"15","Saratoga","US","WY",41.4548,-106.8084
"16","Rock Springs","US","WY",41.5862,-109.2226
"17","Rock River","US","WY",41.7446,-105.9755
"18","Riverton","US","WY",43.0247,-108.3813
"19","Rawlins","US","WY",41.7896,-107.2382
"20","Powell","US","WY",44.7535,-108.759
"21","Point of Rocks","US","WY",NA,NA
"22","Pinedale","US","WY",42.8666,-109.8643
"23","Pine Bluffs","US","WY",41.1838,-104.0677
"24","Pavillion","US","WY",43.2439,-108.6961
"25","Newcastle","US","WY",43.8555,-104.2027
"26",NA,"US","WY",NA,NA
"27","Mountain View","US","WY",41.2702,-110.3403
"28","Moran","US","WY",43.8402,-110.5071
"29","Mills","US","WY",42.8406,-106.372
"30","Lyman","US","WY",41.3269,-110.293
"31","Lusk","US","WY",42.7624,-104.4522
"32","Lovell","US","WY",44.8376,-108.3883
"33","Laramie","US","WY",41.3108,-105.5904
"34","Lander","US","WY",42.8329,-108.7302
"35","Kemmerer","US","WY",41.7979,-110.5404
"36","Jackson Hole","US","WY",NA,NA
"37","Jackson","US","WY",43.48,-110.7624
"38","Hudson","US","WY",42.905,-108.5837
"39","Homa Hills","US","WY",NA,NA
"40","Guernsey","US","WY",42.2698,-104.7423
"41","Greybull","US","WY",44.4886,-108.0553
"42","Green River","US","WY",41.5288,-109.4669
"43","Granite Canon","US","WY",41.0999,-105.1557
"44","Granger","US","WY",41.6007,-109.9589
"45","Glenrock","US","WY",42.8614,-105.8715
"46","Glendo","US","WY",42.5032,-105.0261
"47","Gillette","US","WY",44.2932,-105.5048
"48","Freedom","US","WY",42.9826,-111.0439
"49","Fort Washakie","US","WY",43.029,-108.8958
"50","Fort Laramie","US","WY",42.2128,-104.5171
"51","Fort Bridger","US","WY",41.3165,-110.381
"52","F E Warren AFB","US","WY",41.1396,-104.8458
"53","Evansville","US","WY",42.8577,-106.2673
"54","Evanston","US","WY",41.2675,-110.964
"55","Douglas","US","WY",42.7595,-105.3834
"56","Diamondville","US","WY",41.7797,-110.5403
"57","Dayton","US","WY",44.8767,-107.2627
"58","Cody","US","WY",44.5261,-109.0573
"59","Cheyenne","US","WY",41.1348,-104.8215
"60","Casper","US","WY",42.8501,-106.3278
"61","Carpenter","US","WY",41.0517,-104.351
"62","Burns","US","WY",41.1927,-104.3588
"63","Buffalo","US","WY",44.3482,-106.6997
"64","Bosler","US","WY",41.5772,-105.696
"65","Bitter Creek","US","WY",NA,NA
"66","Bear Gulch","US","WY",NA,NA
"67","Basin","US","WY",44.3811,-108.0397
"68","Bar Nunn","US","WY",42.9158,-106.3471
"69","Alpine","US","WY",43.1649,-111.0173
"70","Albin","US","WY",41.4185,-104.1001
"71","Afton","US","WY",42.7228,-110.9336
"72","Yawkey","US","WV",38.2239,-81.9629
"73","Winfield","US","WV",38.5341,-81.8923
"74","Williamstown","US","WV",39.4027,-81.4483
"75","Williamson","US","WV",37.6759,-82.2783
"76","Williamsburg","US","WV",37.9703,-80.4922
"77","Wiley Ford","US","WV",39.6114,-78.7757
"78","White Sulphur Springs","US","WV",37.7943,-80.3002
"79","White Hall","US","WV",39.4213,-80.1823
"80","Wheeling","US","WV",40.064,-80.7214
"81","Wharton","US","WV",37.9188,-81.682
"82","Westover","US","WV",39.6357,-79.972
"83","Weston","US","WV",39.0379,-80.4676
"84","West Virginia Central Junction","US","WV",NA,NA
"85","West Union","US","WV",39.2965,-80.7768
"86","West Milford","US","WV",39.2027,-80.4038
"87","West Liberty","US","WV",40.169,-80.588
"88","West Columbia","US","WV",38.9834,-82.0632
"89","Wellsburg","US","WV",40.2814,-80.607
"90","Welch","US","WV",37.43,-81.5855
"91","Weirton","US","WV",40.4186,-80.5894
"92","Wayne","US","WV",38.2211,-82.4423
"93","Waverly","US","WV",39.3351,-81.3788
"94","Washington Square","US","WV",NA,NA
"95","Washington","US","WV",39.2614,-81.6689
"96","Wardensville","US","WV",39.0761,-78.5959
"97","War","US","WV",37.3023,-81.6885
"98","Vienna","US","WV",39.325,-81.5488
"99","Valley Grove","US","WV",40.1031,-80.5498
"100","United","US","WV",NA,NA
"101","Union","US","WV",37.5919,-80.5437
"102","Triadelphia","US","WV",40.0518,-80.6325
"103","Thomas","US","WV",39.1501,-79.4975
"104","Terra Alta","US","WV",39.4435,-79.5427
"105","Teays Valley","US","WV",38.4497,-81.9296
"106","Sylvester","US","WV",38.0099,-81.5576
"107","Swiss","US","WV",38.2358,-81.1308
"108","Sutton","US","WV",38.6655,-80.7126
"109","Summit Point","US","WV",39.2509,-77.9562
"110","Summersville","US","WV",38.2811,-80.8521
"111","Sue","US","WV",NA,NA
"112","Spring Mills","US","WV",NA,NA
"113","Spencer","US","WV",38.8026,-81.3521
"114","South Hills","US","WV",NA,NA
"115","South Charleston","US","WV",38.3667,-81.6934
"116","Sophia","US","WV",37.7076,-81.2513
"117","Snowshoe","US","WV",38.42,-79.9971
"118","Smithers","US","WV",38.1816,-81.3074
"119","Smithburg","US","WV",39.2832,-80.663
"120","Sistersville","US","WV",39.5639,-80.9971
"121","Sissonville","US","WV",NA,NA
"122","Sinks Grove","US","WV",37.6651,-80.5409
"123","Shinnston","US","WV",39.3966,-80.299
"124","Shepherdstown","US","WV",39.4307,-77.8052
"125","Scott Depot","US","WV",38.4498,-81.9032
"126","Salt Rock","US","WV",38.3237,-82.2224
"127","Salem","US","WV",39.2827,-80.5586
"128","Saint Marys","US","WV",NA,NA
"129","Saint Albans","US","WV",NA,NA
"130","Rupert","US","WV",37.9631,-80.6887
"131","Ronceverte","US","WV",37.7476,-80.469
"132","Romney","US","WV",39.3421,-78.7571
"133","Rockport","US","WV",39.0719,-81.5522
"134","Rock Cave","US","WV",38.8016,-80.3398
"135","Roanoke","US","WV",NA,NA
"136","Rippon","US","WV",NA,NA
"137","Ripley","US","WV",38.8188,-81.7112
"138","Ridgeley","US","WV",39.6444,-78.7672
"139","Reedsville","US","WV",39.5149,-79.7971
"140","Red House","US","WV",38.5513,-81.8855
"141","Reader","US","WV",39.5704,-80.7329
"142","Ravenswood","US","WV",38.9476,-81.7609
"143","Ranson","US","WV",39.2992,-77.8627
"144","Raleigh","US","WV",37.7607,-81.1612
"145","Rainelle","US","WV",37.9676,-80.7792
"146","Quaker","US","WV",NA,NA
"147","Prosperity","US","WV",NA,NA
"148","Princeton","US","WV",37.3665,-81.1046
"149","Premier","US","WV",NA,NA
"150","Pool","US","WV",38.1571,-80.8699
"151","Point Pleasant","US","WV",38.847,-82.1366
"152","Poca","US","WV",38.4729,-81.814
"153","Pineville","US","WV",37.5848,-81.5348
"154","Philippi","US","WV",39.1532,-80.0412
"155","Peterstown","US","WV",37.3977,-80.7991
"156","Petersburg","US","WV",38.9928,-79.1229
"157","Pennsboro","US","WV",39.2838,-80.9693
"158","Paw Paw","US","WV",39.5345,-78.4571
"159","Parsons","US","WV",39.0966,-79.6804
"160","Parkersburg","US","WV",39.2634,-81.5583
"161","Paden City","US","WV",39.6023,-80.937
"162","Onego","US","WV",38.8471,-79.4219
"163","Ona","US","WV",38.4282,-82.2022
"164","Old Fields","US","WV",39.1352,-78.9503
"165","Oceana","US","WV",37.6987,-81.6367
"166","Oak Hill","US","WV",37.9725,-81.1489
"167","Nutter Fort","US","WV",39.2561,-80.32
"168","North Park","US","WV",NA,NA
"169","North Island","US","WV",NA,NA
"170","North Hills","US","WV",39.3138,-81.5116
"171","Nitro","US","WV",38.4212,-81.841
"172","Newell","US","WV",40.6183,-80.6031
"173","Newburg","US","WV",39.3881,-79.849
"174","New Richmond","US","WV",NA,NA
"175","New Milton","US","WV",39.238,-80.6859
"176","New Martinsville","US","WV",39.6429,-80.8579
"177","New Cumberland","US","WV",40.4944,-80.6046
"178","Nettie","US","WV",38.2244,-80.6849
"179","National","US","WV",NA,NA
"180",NA,"US","WV",NA,NA
"181","Mullens","US","WV",37.5812,-81.3828
"182","Mount Zion","US","WV",NA,NA
"183","Mount Olive","US","WV",NA,NA
"184","Mount Lookout","US","WV",NA,NA
"185","Mount Hope","US","WV",NA,NA
"186","Mount Gay","US","WV",NA,NA
"187","Moundsville","US","WV",39.9186,-80.7466
"188","Morgantown","US","WV",39.6304,-79.9579
"189","Moorefield","US","WV",39.0622,-78.9686
"190","Montgomery","US","WV",38.1807,-81.3288
"191","Montana","US","WV",NA,NA
"192","Mineral Wells","US","WV",39.1933,-81.5316
"193","Milton","US","WV",38.4345,-82.1333
"194","Mill Point","US","WV",NA,NA
"195","Mill Creek","US","WV",38.731,-79.9702
"196","Middleway","US","WV",NA,NA
"197","Middlebourne","US","WV",39.4936,-80.9029
"198","Mechanicsburg","US","WV",NA,NA
"199","Meadows","US","WV",NA,NA
"200","McMechen","US","WV",39.9909,-80.7317
"201","McDowell","US","WV",NA,NA
"202","Matheny","US","WV",37.6648,-81.5993
"203","Masontown","US","WV",39.5531,-79.7977
"204","Martinsburg","US","WV",39.4564,-77.9646
"205","Marlinton","US","WV",38.2225,-80.0929
"206","Market","US","WV",NA,NA
"207","Marion","US","WV",NA,NA
"208","Mannington","US","WV",39.5315,-80.3423
"209","Man","US","WV",37.7434,-81.8744
"210","Maidsville","US","WV",39.684,-79.9708
"211","Madison","US","WV",38.064,-81.8214
"212","Mabscott","US","WV",37.7637,-81.2072
"213","Lumberport","US","WV",39.3747,-80.3475
"214","Lost Creek","US","WV",39.1642,-80.349
"215","Logan","US","WV",37.8473,-81.9943
"216","Littleton","US","WV",39.6977,-80.5101
"217","Little Birch","US","WV",38.5808,-80.7092
"218","Lindside","US","WV",37.4534,-80.6702
"219","Liberty","US","WV",38.6052,-81.73
"220","Lewisburg","US","WV",37.8021,-80.4461
"221","Letart","US","WV",38.8932,-81.9377
"222","Lavalette","US","WV",38.3231,-82.4474
"223","Kingwood","US","WV",39.472,-79.6846
"224","Kimberly","US","WV",38.0058,-81.0411
"225","Keyser","US","WV",39.4405,-78.9771
"226","Kenova","US","WV",38.4012,-82.5777
"227","Kenna","US","WV",38.6762,-81.6593
"228","Kearneysville","US","WV",39.3706,-77.9079
"229","Job","US","WV",NA,NA
"230","Jane Lew","US","WV",39.108,-80.4054
"231","Jackson","US","WV",NA,NA
"232","Ivydale","US","WV",38.5367,-81.0348
"233","Ireland","US","WV",38.7941,-80.5143
"234","Inwood","US","WV",39.3582,-78.0419
"235","Institute","US","WV",NA,NA
"236","Industrial","US","WV",NA,NA
"237","Indore","US","WV",38.355,-81.1515
"238","Huttonsville","US","WV",38.7139,-79.9794
"239","Hurricane","US","WV",38.4321,-82.0224
"240","Huntington","US","WV",38.4202,-82.4455
"241","Hopemont","US","WV",NA,NA
"242","Hometown","US","WV",38.5344,-81.8587
"243","Holden","US","WV",37.8235,-82.0602
"244","Hinton","US","WV",37.6748,-80.8883
"245","Hilltop","US","WV",NA,NA
"246","Hernshaw","US","WV",38.23,-81.5868
"247","Heights","US","WV",NA,NA
"248","Hedgesville","US","WV",39.5539,-77.9951
"249","Hazelton","US","WV",NA,NA
"250","Harts","US","WV",38.0309,-82.1287
"251","Harrisville","US","WV",39.2096,-81.0525
"252","Harpers Ferry","US","WV",39.3255,-77.7391
"253","Hampshire","US","WV",NA,NA
"254","Hamlin","US","WV",38.2773,-82.1035
"255","Greenwood","US","WV",NA,NA
"256","Greencastle","US","WV",NA,NA
"257","Granville","US","WV",39.6436,-79.9853
"258","Grantsville","US","WV",38.923,-81.0945
"259","Grafton","US","WV",39.3412,-80.0249
"260","Glenville","US","WV",38.9346,-80.8382
"261","Glengary","US","WV",39.384,-78.1422
"262","Glen Jean","US","WV",37.9287,-81.156
"263","Glen Fork","US","WV",37.6975,-81.5302
"264","Glen Daniel","US","WV",37.7814,-81.3417
"265","Glen Dale","US","WV",39.9479,-80.7534
"266","Glen","US","WV",38.4001,-81.2381
"267","Glasgow","US","WV",NA,NA
"268","Glade Springs","US","WV",NA,NA
"269","Gilboa","US","WV",38.3006,-80.9425
"270","Gilbert","US","WV",37.6148,-81.8666
"271","Gerrardstown","US","WV",39.3712,-78.096
"272","Genoa","US","WV",38.1224,-82.4609
"273","Gauley Bridge","US","WV",38.1646,-81.1954
"274","Gallagher","US","WV",38.1681,-81.4036
"275","Friendly","US","WV",39.5142,-81.0615
"276","Frenchton","US","WV",NA,NA
"277","French Creek","US","WV",38.8843,-80.2975
"278","Fraziers Bottom","US","WV",38.5671,-81.9865
"279","Franklin","US","WV",38.6446,-79.3303
"280","Fort Gay","US","WV",38.1173,-82.5969
"281","Fort Ashby","US","WV",39.5029,-78.7683
"282","Follansbee","US","WV",40.3319,-80.5963
"283","Flemington","US","WV",39.2664,-80.1322
"284","Flatwoods","US","WV",38.7281,-80.6524
"285","Fayetteville","US","WV",38.0526,-81.1034
"286","Farmington","US","WV",39.5127,-80.2509
"287","Falling Waters","US","WV",39.5618,-77.8972
"288","Fairmont","US","WV",39.4816,-80.1472
"289","Fairlea","US","WV",NA,NA
"290","Elm Grove","US","WV",NA,NA
"291","Ellenboro","US","WV",39.267,-81.055
"292","Elkview","US","WV",38.4471,-81.4568
"293","Elkins","US","WV",38.924,-79.8445
"294","Elizabeth","US","WV",39.0609,-81.3968
"295","Edgewood Acres","US","WV",NA,NA
"296","Dunbar","US","WV",38.3586,-81.7396
"297","Dorothy","US","WV",37.9563,-81.4727
"298","Dellslow","US","WV",NA,NA
"299","Delbarton","US","WV",37.7039,-82.1852
"300","Davisville","US","WV",39.2077,-81.4853
"301","Danville","US","WV",38.0819,-81.8348
"302","Daniels","US","WV",37.7431,-81.1226
"303","Dallas","US","WV",40.0157,-80.5268
"304","Culloden","US","WV",38.42,-82.0553
"305","Cross Lanes","US","WV",NA,NA
"306","Crawley","US","WV",37.9355,-80.6509
"307","Craigsville","US","WV",38.3309,-80.6532
"308","Cowen","US","WV",38.4097,-80.5573
"309","Colliers","US","WV",40.37,-80.5236
"310","Clendenin","US","WV",38.4891,-81.3471
"311","Clay","US","WV",38.4597,-81.0788
"312","Clarksburg","US","WV",39.2794,-80.3402
"313","Chester","US","WV",40.6115,-80.5653
"314","Cheat Lake","US","WV",NA,NA
"315","Chauncey","US","WV",37.7675,-81.9888
"316","Charleston","US","WV",38.3502,-81.639
"317","Charles Town","US","WV",39.2893,-77.8591
"318","Chapmanville","US","WV",37.9766,-82.0165
"319","Ceredo","US","WV",38.3966,-82.5592
"320","Central Station","US","WV",NA,NA
"321","Cassville","US","WV",NA,NA
"322","Carolina","US","WV",39.4801,-80.2733
"323","Camden","US","WV",39.0543,-80.5664
"324","Caldwell","US","WV",37.7809,-80.3953
"325","Cabin Creek","US","WV",38.1936,-81.4973
"326","Buffalo","US","WV",38.6171,-81.982
"327","Buckhannon","US","WV",38.9933,-80.2317
"328","Buckeye","US","WV",38.1988,-80.1348
"329","Bruceton Mills","US","WV",39.659,-79.6385
"330","Brown","US","WV",NA,NA
"331","Bridgeport","US","WV",39.286,-80.2489
"332","Branchland","US","WV",38.219,-82.2108
"333","Bradshaw","US","WV",37.3521,-81.7986
"334","Bradley","US","WV",NA,NA
"335","Bluewell","US","WV",NA,NA
"336","Bluefield","US","WV",37.268,-81.2226
"337","Blue Jay","US","WV",NA,NA
"338","Birch River","US","WV",38.5037,-80.7528
"339","Beverly","US","WV",38.8385,-79.8759
"340","Bethany","US","WV",40.2049,-80.5681
"341","Berkeley Springs","US","WV",39.6281,-78.2269
"342","Berkeley","US","WV",NA,NA
"343","Berea","US","WV",39.1375,-80.9342
"344","Benwood","US","WV",40.0258,-80.7269
"345","Belva","US","WV",38.2321,-81.1895
"346","Belmont","US","WV",39.3812,-81.26
"347","Belle","US","WV",38.2301,-81.5353
"348","Belington","US","WV",39.025,-79.9357
"349","Beckley","US","WV",37.7776,-81.1876
"350","Beaver","US","WV",37.7685,-81.0706
"351","Bardane","US","WV",NA,NA
"352","Barboursville","US","WV",38.4089,-82.2936
"353","Bakerton","US","WV",NA,NA
"354","Avondale","US","WV",NA,NA
"355","Augusta","US","WV",39.3014,-78.6555
"356","Athens","US","WV",37.423,-81.0161
"357","Asbury","US","WV",37.8194,-80.5617
"358","Arthurdale","US","WV",39.4947,-79.8153
"359","Arlington","US","WV",NA,NA
"360","Arkansas","US","WV",NA,NA
"361","Apple Grove","US","WV",38.6738,-82.1716
"362","Ansted","US","WV",38.1354,-81.098
"363","Amma","US","WV",38.5694,-81.2676
"364","Alum Creek","US","WV",38.2849,-81.7994
"365","Alum Bridge","US","WV",39.0391,-80.6601
"366","Alderson","US","WV",37.726,-80.6431
"367","Zoar","US","WI",NA,NA
"368","Zenda","US","WI",NA,NA
"369","Yorkville","US","WI",42.7154,-87.9893
"370","Wrightstown","US","WI",44.3373,-88.0902
"371","Woodville","US","WI",44.1986,-88.2039
"372","Woodruff","US","WI",45.8967,-89.6984
"373","Wittenberg","US","WI",44.8197,-89.1816
"374","Wisconsin Rapids","US","WI",44.3932,-89.8164
"375","Wisconsin Dells","US","WI",43.6276,-89.7715
"376","Wisc Dells","US","WI",NA,NA
"377","Winneconne","US","WI",44.1204,-88.6839
"378","Winnebago","US","WI",NA,NA
"379","Windsor","US","WI",43.2164,-89.3408
"380","Wilmot","US","WI",42.5124,-88.1821
"381","Williams Bay","US","WI",NA,NA
"382","Willard","US","WI",44.7345,-90.7199
"383","Wild Rose","US","WI",NA,NA
"384","Whiting Field","US","WI",NA,NA
"385","Whitewater","US","WI",42.835,-88.7381
"386","Whitelaw","US","WI",NA,NA
"387","Whitehall","US","WI",44.3643,-91.3167
"388","Whitefish Bay","US","WI",NA,NA
"389","White Lake","US","WI",NA,NA
"390","Wheeler","US","WI",NA,NA
"391","Weyerhaeuser","US","WI",NA,NA
"392","Weyauwega","US","WI",44.3214,-88.9331
"393","Weston","US","WI",NA,NA
"394","Westfield","US","WI",NA,NA
"395","Westby","US","WI",43.6532,-90.8575
"396","West Salem","US","WI",NA,NA
"397","West Milwaukee","US","WI",NA,NA
"398","West Bend","US","WI",43.4088,-88.1811
"399","West Allis","US","WI",43.0167,-88.0063
"400","Webster","US","WI",43.5945,-90.7257
"401","Webb Lake","US","WI",46.0378,-92.1125
"402","Wauwatosa","US","WI",43.0608,-88.0084
"403","Wautoma","US","WI",44.076,-89.2941
"404","Wausau","US","WI",44.9595,-89.6303
"405","Waupun","US","WI",43.6332,-88.7341
"406","Waupaca","US","WI",44.356,-89.0842
"407","Waunakee","US","WI",NA,NA
"408","Waukesha","US","WI",43.0146,-88.2355
"409","Watertown","US","WI",43.1974,-88.7205
"410","Waterloo","US","WI",43.1838,-88.9901
"411","Waterford","US","WI",42.7757,-88.2041
"412","Washburn","US","WI",46.6705,-90.8983
"413","Warrens","US","WI",NA,NA
"414","Walworth","US","WI",42.5404,-88.6118
"415","Wales","US","WI",NA,NA
"416","Viroqua","US","WI",43.5571,-90.8887
"417","Virgin Island","US","WI",NA,NA
"418","Viola","US","WI",NA,NA
"419","Village of Pewaukee","US","WI",NA,NA
"420","Vesper","US","WI",NA,NA
"421","Verona","US","WI",42.9915,-89.5284
"422","Vernon","US","WI",42.8816,-88.2481
"423","Van Dyne","US","WI",43.8885,-88.5035
"424","Valders","US","WI",NA,NA
"425","Union Grove","US","WI",NA,NA
"426","Two Rivers","US","WI",44.1532,-87.5684
"427","Twin Lakes","US","WI",NA,NA
"428","Turtle Lake","US","WI",45.3428,-92.0946
"429","Tunnel City","US","WI",44.0058,-90.5654
"430","Trevor","US","WI",42.5119,-88.1194
"431","Tomahawk","US","WI",45.472,-89.7299
"432","Tomah","US","WI",43.9726,-90.5048
"433","Tigerton","US","WI",NA,NA
"434","Thorp","US","WI",44.9592,-90.7996
"435","Thiensville","US","WI",NA,NA
"436","Theresa","US","WI",43.5037,-88.4603
"437","Sussex","US","WI",NA,NA
"438","Suring","US","WI",NA,NA
"439","Superior","US","WI",46.7213,-92.1039
"440","Sun Prairie","US","WI",43.183,-89.2107
"441","Summit","US","WI",NA,NA
"442","Suamico","US","WI",44.6348,-88.0493
"443","Sturtevant","US","WI",NA,NA
"444","Sturgeon Bay","US","WI",44.8352,-87.3704
"445","Strum","US","WI",NA,NA
"446","Stratford","US","WI",NA,NA
"447","Stoughton","US","WI",42.9168,-89.2173
"448","Stoddard","US","WI",NA,NA
"449","Stockholm","US","WI",44.511,-92.2516
"450","Stockbridge","US","WI",44.0732,-88.2687
"451","Stevens Point","US","WI",44.5239,-89.5748
"452","Stetsonville","US","WI",NA,NA
"453","Star Prairie","US","WI",45.1655,-92.6066
"454","Stanley","US","WI",44.9588,-90.937
"455","Spring Valley","US","WI",42.632,-89.2945
"456","Spring Green","US","WI",43.2097,-90.1332
"457","Spooner","US","WI",45.8234,-91.8905
"458","Spencer","US","WI",44.7287,-90.2578
"459","Sparta","US","WI",43.9391,-90.8203
"460","South Wayne","US","WI",NA,NA
"461","South Range","US","WI",46.6077,-91.9838
"462","South Milwaukee","US","WI",42.9078,-87.8717
"463","Somerset","US","WI",45.1595,-92.7013
"464","Somers","US","WI",42.64,-87.9021
"465","Solon Springs","US","WI",46.3669,-91.8117
"466","Slinger","US","WI",NA,NA
"467","Sister Bay","US","WI",NA,NA
"468","Siren","US","WI",45.7736,-92.3469
"469","Silver Lake","US","WI",NA,NA
"470","Shullsburg","US","WI",42.5727,-90.2311
"471","Shorewood Hills","US","WI",NA,NA
"472","Shorewood","US","WI",NA,NA
"473","Sherwood","US","WI",44.4683,-90.3555
"474","Shell Lake","US","WI",45.7435,-91.9231
"475","Sheboygan Falls","US","WI",43.7287,-87.812
"476","Sheboygan","US","WI",43.7498,-87.7137
"477","Shawano","US","WI",44.7826,-88.6094
"478","Sharon","US","WI",42.5412,-88.7275
"479","Seymour","US","WI",44.5151,-88.3293
"480","Schofield","US","WI",44.9206,-89.6128
"481","Scandinavia","US","WI",44.4825,-89.1596
"482","Saxon","US","WI",46.4931,-90.4134
"483","Saukville","US","WI",43.4187,-87.9958
"484","Sauk City","US","WI",NA,NA
"485","Sarona","US","WI",45.7096,-91.8066
"486","Salem","US","WI",42.5545,-88.1105
"487","Saint Nazianz","US","WI",NA,NA
"488","Saint Francis","US","WI",NA,NA
"489","Saint Croix Falls","US","WI",NA,NA
"490","Saint Cloud","US","WI",NA,NA
"491","Rudolph","US","WI",44.467,-89.7769
"492","Rubicon","US","WI",43.3397,-88.4582
"493","Rothschild","US","WI",NA,NA
"494","Rosholt","US","WI",NA,NA
"495","Rosendale","US","WI",43.8514,-88.7173
"496","Rochester","US","WI",42.7454,-88.2495
"497","Roberts","US","WI",NA,NA
"498","River Hills","US","WI",NA,NA
"499","River Falls","US","WI",44.8542,-92.6281
"500","Ripon","US","WI",43.8458,-88.837
"501","Rio","US","WI",NA,NA
"502","Riley","US","WI",NA,NA
"503","Richland Center","US","WI",43.3424,-90.3865
"504","Richfield","US","WI",43.2367,-88.2435
"505","Rice Lake","US","WI",45.4932,-91.7333
"506","Rib Lake","US","WI",45.3307,-90.1271
"507","Rhinelander","US","WI",45.6384,-89.4113
"508","Reedsville","US","WI",NA,NA
"509","Reedsburg","US","WI",43.5325,-90.0003
"510","Redgranite","US","WI",NA,NA
"511","Readstown","US","WI",NA,NA
"512","Raymond","US","WI",42.8143,-88.0122
"513","Random Lake","US","WI",NA,NA
"514","Randolph","US","WI",43.5888,-89.0519
"515","Radisson","US","WI",45.7798,-91.2303
"516","Racine","US","WI",42.7252,-87.7904
"517","Pulaski","US","WI",43.1559,-90.3578
"518","Princeton","US","WI",43.851,-89.1298
"519","Prescott","US","WI",44.7491,-92.8024
"520","Prentice","US","WI",45.5383,-90.3519
"521","Prairie Farm","US","WI",45.2504,-91.9732
"522","Prairie du Sac","US","WI",43.3019,-89.779
"523","Prairie du Chien","US","WI",43.0519,-91.1418
"524","Poynette","US","WI",NA,NA
"525","Poy Sippi","US","WI",44.1378,-88.9949
"526","Powers Lake","US","WI",NA,NA
"527","Pound","US","WI",45.0586,-88.0648
"528","Potter","US","WI",NA,NA
"529","Potosi","US","WI",42.7176,-90.7017
"530","Portage","US","WI",43.5383,-89.458
"531","Port Wing","US","WI",46.775,-91.3865
"532","Port Washington","US","WI",43.3876,-87.8711
"533","Port Edwards","US","WI",44.2783,-89.9535
"534","Plymouth","US","WI",43.7568,-87.9848
"535","Plover","US","WI",NA,NA
"536","Pleasant Prairie","US","WI",42.5269,-87.8539
"537","Platteville","US","WI",42.7349,-90.4801
"538","Plainville","US","WI",NA,NA
"539","Plainfield","US","WI",44.1994,-89.5389
"540","Plain","US","WI",NA,NA
"541","Pittsville","US","WI",44.4383,-90.1277
"542","Pine River","US","WI",44.1517,-89.0772
"543","Pike Lake","US","WI",NA,NA
"544","Pigeon Falls","US","WI",NA,NA
"545","Pickerel","US","WI",45.3634,-88.9181
"546","Phillips","US","WI",45.6923,-90.4001
"547","Pewaukee","US","WI",43.0759,-88.2246
"548","Peshtigo","US","WI",45.0544,-87.7515
"549","Pepin","US","WI",44.472,-92.1553
"550","Pelican Lake","US","WI",45.4965,-89.1683
"551","Parkland","US","WI",46.6477,-91.9986
"552","Park Falls","US","WI",45.9342,-90.4511
"553","Pardeeville","US","WI",NA,NA
"554","Palmyra","US","WI",42.8967,-88.5963
"555","Paddock Lake","US","WI",NA,NA
"556","Packwaukee","US","WI",43.7645,-89.4573
"557","Oxford","US","WI",43.7833,-89.5273
"558","Owen","US","WI",44.9459,-90.557
"559","Osseo","US","WI",44.579,-91.2238
"560","Oshkosh","US","WI",44.0249,-88.5444
"561","Osceola","US","WI",NA,NA
"562","Oregon","US","WI",42.9157,-89.3874
"563","Oostburg","US","WI",NA,NA
"564","Oneida","US","WI",44.5017,-88.1974
"565","Onalaska","US","WI",43.8843,-91.2213
"566","Omro","US","WI",44.0394,-88.7452
"567","Okauchee","US","WI",43.1118,-88.4388
"568","Ogdensburg","US","WI",44.4534,-89.0316
"569","Odanah","US","WI",46.6111,-90.6896
"570","Oconto Falls","US","WI",44.8779,-88.1465
"571","Oconto","US","WI",44.887,-87.8638
"572","Oconomowoc","US","WI",43.1113,-88.4992
"573","Oakfield","US","WI",43.6825,-88.5674
"574","Oakdale","US","WI",43.9382,-90.3631
"575","Oak Creek","US","WI",42.8898,-87.912
"576","Norwalk","US","WI",NA,NA
"577","North Lake","US","WI",NA,NA
"578","North Fond du Lac","US","WI",NA,NA
"579","North Bay","US","WI",NA,NA
"580","Niagara","US","WI",45.7825,-88.0088
"581","Newburg","US","WI",NA,NA
"582","New Richmond","US","WI",45.1221,-92.5376
"583","New London","US","WI",44.3908,-88.7402
"584","New Lisbon","US","WI",43.8792,-90.1663
"585","New Holstein","US","WI",43.9498,-88.0979
"586","New Glarus","US","WI",42.8016,-89.6731
"587","New Franken","US","WI",44.5302,-87.8259
"588","New Berlin","US","WI",42.9754,-88.1186
"589","Neshkoro","US","WI",43.9383,-89.2073
"590","Neosho","US","WI",NA,NA
"591","Neopit","US","WI",44.9808,-88.8272
"592","Nelsonville","US","WI",NA,NA
"593","Nekoosa","US","WI",44.3159,-89.8891
"594","Neillsville","US","WI",44.5538,-90.5964
"595","Neenah","US","WI",44.1861,-88.4619
"596","Necedah","US","WI",44.0292,-90.0303
"597","Nashotah","US","WI",NA,NA
"598",NA,"US","WI",NA,NA
"599","Muskego","US","WI",42.8952,-88.1431
"600","Mukwonago","US","WI",42.8918,-88.3853
"601","Mt Pleasant","US","WI",42.7318,-89.5439
"602","Mount View","US","WI",NA,NA
"603","Mount Sterling","US","WI",NA,NA
"604","Mount Pleasant","US","WI",NA,NA
"605","Mount Horeb","US","WI",NA,NA
"606","Mount Calvary","US","WI",NA,NA
"607","Mosinee","US","WI",44.7932,-89.7034
"608","Morrisonville","US","WI",43.2777,-89.3592
"609","Montreal","US","WI",46.4283,-90.2418
"610","Montfort","US","WI",NA,NA
"611","Montello","US","WI",43.7919,-89.3301
"612","Monroe","US","WI",42.603,-89.6451
"613","Monona","US","WI",43.0633,-89.3385
"614","Mondovi","US","WI",44.5679,-91.671
"615","Mishicot","US","WI",44.2274,-87.62
"616","Minong","US","WI",46.0999,-91.8858
"617","Minocqua","US","WI",45.871,-89.71
"618","Mineral Point","US","WI",42.8651,-90.1846
"619","Mindoro","US","WI",44.0207,-91.1018
"620","Milwaukee","US","WI",43.042,-87.9069
"621","Milton","US","WI",42.7816,-88.9566
"622","Milladore","US","WI",44.6419,-89.896
"623","Milan","US","WI",NA,NA
"624","Mikana","US","WI",45.5919,-91.6021
"625","Middleton","US","WI",43.0952,-89.5099
"626","Merrimac","US","WI",43.4013,-89.6603
"627","Merrillan","US","WI",NA,NA
"628","Merrill","US","WI",45.1809,-89.6944
"629","Mequon","US","WI",43.2252,-87.9845
"630","Menomonie","US","WI",44.8915,-91.9737
"631","Menomonee Falls","US","WI",43.1731,-88.1037
"632","Menominee","US","WI",44.8805,-91.9295
"633","Menasha","US","WI",44.2003,-88.4507
"634","Melrose","US","WI",44.1291,-91.0232
"635","Mellen","US","WI",46.3255,-90.6605
"636","Medford","US","WI",45.1392,-90.345
"637","McFarland","US","WI",NA,NA
"638","Mc Farland","US","WI",NA,NA
"639","Mazomanie","US","WI",43.1767,-89.7876
"640","Mayville","US","WI",43.4963,-88.5444
"641","Mauston","US","WI",43.7957,-90.0726
"642","Mattoon","US","WI",NA,NA
"643","Mason","US","WI",46.4753,-91.1136
"644","Marshfield","US","WI",44.667,-90.1736
"645","Marshall","US","WI",NA,NA
"646","Markesan","US","WI",43.7069,-88.9907
"647","Marion","US","WI",44.6713,-88.8893
"648","Marinette","US","WI",45.0998,-87.633
"649","Maribel","US","WI",NA,NA
"650","Marengo","US","WI",46.3449,-90.8603
"651","Marathon City","US","WI",44.93,-89.8402
"652","Marathon","US","WI",44.9015,-89.7986
"653","Maple Grove","US","WI",NA,NA
"654","Manitowoc","US","WI",44.1076,-87.6617
"655","Manitowish Waters","US","WI",46.1323,-89.8879
"656","Manawa","US","WI",44.4637,-88.92
"657","Malone","US","WI",43.8566,-88.2822
"658","Maiden Rock","US","WI",44.576,-92.269
"659","Madison Park","US","WI",NA,NA
"660","Madison","US","WI",43.073,-89.3867
"661","Luxemburg","US","WI",44.5234,-87.6837
"662","Luck","US","WI",45.5983,-92.4614
"663","Loyal","US","WI",44.7347,-90.496
"664","Lowell","US","WI",43.345,-88.8332
"665","Lomira","US","WI",43.5728,-88.455
"666","Loganville","US","WI",NA,NA
"667","Lodi","US","WI",43.3132,-89.5261
"668","Little Suamico","US","WI",44.7209,-88.0643
"669","Little Chute","US","WI",NA,NA
"670","Lisbon","US","WI",43.1754,-88.2127
"671","Lindina","US","WI",43.8041,-90.1219
"672","Linden","US","WI",42.9457,-90.2659
"673","Lena","US","WI",44.98,-88.0561
"674","Lebanon","US","WI",43.2383,-88.5891
"675","Larsen","US","WI",44.1987,-88.661
"676","Laona","US","WI",45.5592,-88.6749
"677","Lannon","US","WI",NA,NA
"678","Land O' Lakes","US","WI",46.162,-89.2185
"679","Lancaster","US","WI",42.8475,-90.7096
"680","Lakewood","US","WI",45.3005,-88.5226
"681","Lake Wissota","US","WI",NA,NA
"682","Lake Tomahawk","US","WI",45.8175,-89.5979
"683","Lake Nebagamon","US","WI",NA,NA
"684","Lake Mills","US","WI",43.0806,-88.9121
"685","Lake Hallie","US","WI",NA,NA
"686","Lake Geneva","US","WI",42.5918,-88.4362
"687","Lake Delton","US","WI",NA,NA
"688","Ladysmith","US","WI",45.4651,-91.1041
"689","Lac du Flambeau Reservation","US","WI",NA,NA
"690","Lac du Flambeau","US","WI",45.9716,-89.8909
"691","La Farge","US","WI",NA,NA
"692","La Crosse","US","WI",43.8126,-91.2519
"693","Kronenwetter","US","WI",NA,NA
"694","Krakow","US","WI",44.764,-88.2519
"695","Koshkonong","US","WI",42.8927,-88.8506
"696","Kohler","US","WI",NA,NA
"697","Knellsville","US","WI",NA,NA
"698","Knapp","US","WI",44.3018,-90.4892
"699","King","US","WI",44.3373,-89.1428
"700","Kimberly","US","WI",NA,NA
"701","Kieler","US","WI",42.5809,-90.603
"702","Kiel","US","WI",43.9131,-88.0398
"703","Kewaunee","US","WI",44.4578,-87.503
"704","Kewaskum","US","WI",43.5158,-88.1808
"705","Kenosha","US","WI",42.5881,-87.8233
"706","Kendall","US","WI",42.7667,-90.2279
"707","Kaukauna","US","WI",44.277,-88.2712
"708","Kansasville","US","WI",42.6881,-88.1105
"709","Juneau","US","WI",43.4067,-88.7043
"710","Junction City","US","WI",NA,NA
"711","Juda","US","WI",42.5892,-89.5041
"712","Johnson Creek","US","WI",NA,NA
"713","Jim Falls","US","WI",45.0461,-91.2734
"714","Jefferson","US","WI",43.0049,-88.8073
"715","Janesville","US","WI",42.6879,-89.0182
"716","James Island","US","WI",NA,NA
"717","Jackson","US","WI",43.3061,-88.1224
"718","Ixonia","US","WI",43.1441,-88.5983
"719","Iron Ridge","US","WI",NA,NA
"720","Iola","US","WI",44.5582,-89.1585
"721","Hustler","US","WI",NA,NA
"722","Hustisford","US","WI",43.3276,-88.5987
"723","Hurley","US","WI",46.4503,-90.1818
"724","Hudson","US","WI",44.9819,-92.7572
"725","Hubertus","US","WI",43.2364,-88.2198
"726","Howards Grove","US","WI",NA,NA
"727","Howard","US","WI",44.9486,-91.5442
"728","Houlton","US","WI",45.0607,-92.7903
"729","Hortonville","US","WI",NA,NA
"730","Horicon","US","WI",43.4512,-88.6325
"731","Holmen","US","WI",NA,NA
"732","Hobart","US","WI",NA,NA
"733","Hixton","US","WI",44.3871,-90.9898
"734","Hillsboro","US","WI",43.6517,-90.3411
"735","Hilbert","US","WI",NA,NA
"736","Hazelhurst","US","WI",45.8093,-89.7253
"737","Hazel Green","US","WI",42.5531,-90.4848
"738","Hayward","US","WI",46.014,-91.4829
"739","Hawkins","US","WI",45.4715,-90.7138
"740","Hartland","US","WI",NA,NA
"741","Hartford","US","WI",43.3196,-88.3789
"742","Hancock","US","WI",44.0939,-89.5487
"743","Hammond","US","WI",45.0039,-92.4361
"744","Hallie","US","WI",44.8728,-91.3678
"745","Hales Corners","US","WI",NA,NA
"746","Gresham","US","WI",NA,NA
"747","Greenwood","US","WI",44.7694,-90.5982
"748","Greenville","US","WI",44.3094,-88.5367
"749","Greenleaf","US","WI",44.3135,-88.0925
"750","Greenfield","US","WI",42.9662,-88.0047
"751","Greendale","US","WI",NA,NA
"752","Green Lake","US","WI",43.8456,-88.9601
"753","Green Bay","US","WI",44.513,-88.01
"754","Grantsburg","US","WI",45.7768,-92.7233
"755","Granton","US","WI",NA,NA
"756","Grand Chute","US","WI",44.2877,-88.4413
"757","Grafton","US","WI",43.3316,-87.9346
"758","Glidden","US","WI",46.1356,-90.5763
"759","Glenmore","US","WI",44.3691,-87.9475
"760","Glendale","US","WI",43.1268,-87.9281
"761","Glen Flora","US","WI",NA,NA
"762","Gleason","US","WI",45.3086,-89.4977
"763","Gillett","US","WI",44.8897,-88.3081
"764","Germantown","US","WI",43.2573,-88.1387
"765","Genoa City","US","WI",NA,NA
"766","Genoa","US","WI",43.5547,-91.1904
"767","Genesee Depot","US","WI",42.9669,-88.371
"768","Gays Mills","US","WI",NA,NA
"769","Galesville","US","WI",44.0807,-91.3505
"770","Friesland","US","WI",NA,NA
"771","Friendship","US","WI",43.8496,-88.483
"772","Freedom","US","WI",44.3696,-88.312
"773","Fredonia","US","WI",43.4732,-87.9911
"774","Frederic","US","WI",NA,NA
"775","Franksville","US","WI",42.7601,-87.9141
"776","Franklin","US","WI",42.8998,-88.0296
"777","Fox Valley","US","WI",NA,NA
"778","Fox River","US","WI",NA,NA
"779","Fox Point","US","WI",NA,NA
"780","Fox Lake","US","WI",43.566,-88.9072
"781","Fox Creek","US","WI",NA,NA
"782","Fountain City","US","WI",44.1394,-91.7288
"783","Fort McCoy","US","WI",NA,NA
"784","Fort Atkinson","US","WI",42.9264,-88.837
"785","Fontana","US","WI",NA,NA
"786","Fond du Lac","US","WI",43.773,-88.4471
"787","Florence","US","WI",45.9224,-88.2498
"788","Fitchburg","US","WI",43.0019,-89.4058
"789","Fish Creek","US","WI",45.1263,-87.2468
"790","Ferryville","US","WI",NA,NA
"791","Fennimore","US","WI",42.9823,-90.6556
"792","Fall River","US","WI",NA,NA
"793","Fall Creek","US","WI",NA,NA
"794","Fairwater","US","WI",NA,NA
"795","Exeland","US","WI",NA,NA
"796","Evansville","US","WI",42.7803,-89.2926
"797","Ephraim","US","WI",NA,NA
"798","Embarrass","US","WI",NA,NA
"799","Elroy","US","WI",43.7421,-90.2729
"800","Elmwood","US","WI",NA,NA
"801","Elm Grove","US","WI",NA,NA
"802","Ellsworth","US","WI",44.718,-92.4248
"803","Ellison Bay","US","WI",45.2538,-87.0735
"804","Elkhorn","US","WI",42.6719,-88.5454
"805","Elkhart Lake","US","WI",NA,NA
"806","Elk Mound","US","WI",44.9038,-91.7312
"807","Eland","US","WI",NA,NA
"808","Egg Harbor","US","WI",44.9976,-87.3457
"809","Edgerton","US","WI",42.8346,-89.0717
"810","Edgar","US","WI",NA,NA
"811","Eau Claire","US","WI",44.8165,-91.5012
"812","East Troy","US","WI",42.8058,-88.362
"813","Eagle River","US","WI",45.917,-89.2528
"814","Eagle","US","WI",42.8877,-88.4646
"815","Durand","US","WI",44.6283,-91.9628
"816","Drummond","US","WI",46.3386,-91.2514
"817","Dresser","US","WI",NA,NA
"818","Dousman","US","WI",NA,NA
"819","Dorchester","US","WI",NA,NA
"820","Dodgeville","US","WI",42.9605,-90.1304
"821","Dodge","US","WI",44.1334,-91.5525
"822","Dickeyville","US","WI",NA,NA
"823","Dexterville","US","WI",NA,NA
"824","Denmark","US","WI",NA,NA
"825","Dellwood","US","WI",NA,NA
"826","Delavan","US","WI",42.6321,-88.6469
"827","Delafield","US","WI",43.0596,-88.4042
"828","DeForest","US","WI",NA,NA
"829","Deerfield","US","WI",43.0873,-89.0784
"830","Deerbrook","US","WI",45.2341,-89.1646
"831","Deer Park","US","WI",NA,NA
"832","De Pere","US","WI",44.449,-88.0599
"833","De Forest","US","WI",NA,NA
"834","Darlington","US","WI",42.6806,-90.1179
"835","Darien","US","WI",42.6147,-88.7328
"836","Dane","US","WI",43.2509,-89.5183
"837","Dallas","US","WI",45.2592,-91.8457
"838","Dale","US","WI",44.2818,-88.6781
"839","Curtiss","US","WI",NA,NA
"840","Cumberland","US","WI",45.5324,-92.0225
"841","Cudahy","US","WI",42.9536,-87.8501
"842","Cuba City","US","WI",42.6091,-90.4308
"843","Cross Plains","US","WI",43.0585,-89.6558
"844","Crivitz","US","WI",NA,NA
"845","Crandon","US","WI",45.5718,-88.9034
"846","Couderay","US","WI",45.7955,-91.3526
"847","Cottage Grove","US","WI",43.0456,-89.1999
"848","Cornell","US","WI",45.1653,-91.1498
"849","Coon Valley","US","WI",NA,NA
"850","Columbus","US","WI",43.3421,-89.0204
"851","Coloma","US","WI",44.0219,-89.5321
"852","Collins","US","WI",44.0843,-87.9794
"853","Colgate","US","WI",43.1973,-88.202
"854","Colfax","US","WI",44.9793,-91.6935
"855","Colby","US","WI",44.9096,-90.3162
"856","Cobb","US","WI",NA,NA
"857","Clyman","US","WI",43.3329,-88.7146
"858","Clintonville","US","WI",44.6215,-88.7613
"859","Clinton","US","WI",42.5334,-88.8461
"860","Cleveland","US","WI",NA,NA
"861","Clear Lake","US","WI",45.2674,-92.2082
"862","Clayton","US","WI",44.1997,-88.5444
"863","Chippewa Falls","US","WI",44.9375,-91.3925
"864","Chilton","US","WI",44.0292,-88.1642
"865","Chetek","US","WI",45.3217,-91.6518
"866","Centuria","US","WI",NA,NA
"867","Cedarburg","US","WI",43.299,-87.9885
"868","Cedar Grove","US","WI",NA,NA
"869","Catawba","US","WI",45.5215,-90.4984
"870","Cassville","US","WI",42.7313,-90.9602
"871","Cashton","US","WI",NA,NA
"872","Caroline","US","WI",44.721,-88.893
"873","Campbellsport","US","WI",NA,NA
"874","Camp Douglas","US","WI",NA,NA
"875","Cameron","US","WI",44.6123,-90.1652
"876","Cambridge","US","WI",NA,NA
"877","Cambria","US","WI",NA,NA
"878","Caledonia","US","WI",42.8076,-87.9338
"879","Cadott","US","WI",NA,NA
"880","Cable","US","WI",46.2079,-91.2937
"881","Butler","US","WI",44.8139,-90.8469
"882","Burnett","US","WI",43.5083,-88.7087
"883","Burlington","US","WI",42.68,-88.277
"884","Bruce","US","WI",NA,NA
"885","Browntown","US","WI",NA,NA
"886","Brownsville","US","WI",NA,NA
"887","Brown Deer","US","WI",NA,NA
"888","Brooklyn","US","WI",NA,NA
"889","Brookfield","US","WI",43.056,-88.1264
"890","Brodhead","US","WI",42.618,-89.3768
"891","Brockway","US","WI",44.2986,-90.7865
"892","Bristol","US","WI",42.5568,-88.0504
"893","Brillion","US","WI",44.179,-88.0642
"894","Briggsville","US","WI",43.653,-89.5861
"895","Brandon","US","WI",NA,NA
"896","Bowler","US","WI",NA,NA
"897","Boulder Junction","US","WI",46.1129,-89.6453
"898","Boscobel","US","WI",43.1397,-90.7106
"899","Bonduel","US","WI",NA,NA
"900","Blue Mounds","US","WI",43.019,-89.7701
"901","Bloomer","US","WI",45.0979,-91.488
"902","Blair","US","WI",44.2942,-91.2355
"903","Black River Falls","US","WI",44.2956,-90.8474
"904","Black Earth","US","WI",43.1605,-89.7406
"905","Black Creek","US","WI",44.4665,-88.431
"906","Birnamwood","US","WI",44.9064,-89.1384
"907","Birchwood","US","WI",45.7001,-91.5999
"908","Big Susie Island","US","WI",NA,NA
"909","Big Bend","US","WI",45.3485,-91.3622
"910","Berlin","US","WI",43.9683,-88.9473
"911","Benton","US","WI",42.5947,-90.4001
"912","Beloit","US","WI",42.5067,-89.0379
"913","Belmont","US","WI",NA,NA
"914","Bellevue","US","WI",44.4438,-87.9209
"915","Belleville","US","WI",NA,NA
"916","Belgium","US","WI",43.4849,-87.8604
"917","Beaver Dam","US","WI",43.4563,-88.8302
"918","Bayside","US","WI",NA,NA
"919","Bayfield","US","WI",46.811,-90.8204
"920","Bavaria","US","WI",NA,NA
"921","Barron","US","WI",45.4014,-91.8493
"922","Barneveld","US","WI",NA,NA
"923","Baraboo","US","WI",43.4685,-89.7443
"924","Bangor","US","WI",43.8298,-90.9924
"925","Bancroft","US","WI",44.3095,-89.5144
"926","Balsam Lake","US","WI",45.4307,-92.4282
"927","Baldwin","US","WI",44.9976,-92.3186
"928","Babcock","US","WI",44.3019,-90.1104
"929","Augusta","US","WI",44.6808,-91.1289
"930","Auburndale","US","WI",44.6556,-90.0151
"931","Athens","US","WI",NA,NA
"932","Ashwaubenon","US","WI",44.4831,-88.0695
"933","Ashland","US","WI",46.5854,-90.8863
"934","Arpin","US","WI",44.5552,-90.0303
"935","Armstrong Creek","US","WI",45.6583,-88.4485
"936","Arlington","US","WI",43.3378,-89.4233
"937","Arkdale","US","WI",44.0256,-89.8872
"938","Arkansaw","US","WI",44.6338,-92.0306
"939","Argyle","US","WI",42.7011,-89.9129
"940","Arcadia","US","WI",44.2525,-91.5001
"941","Arbor Vitae","US","WI",45.9204,-89.6679
"942","Appleton","US","WI",44.2618,-88.4171
"943","Antigo","US","WI",45.1405,-89.1512
"944","Aniwa","US","WI",44.9721,-89.1739
"945","Amherst Junction","US","WI",NA,NA
"946","Amherst","US","WI",44.4606,-89.2897
"947","Amery","US","WI",45.306,-92.3621
"948","Amberg","US","WI",45.4993,-88.0011
"949","Altoona","US","WI",44.8069,-91.4351
"950","Alma Center","US","WI",NA,NA
"951","Alma","US","WI",44.3119,-91.9105
"952","Allouez","US","WI",NA,NA
"953","Allenton","US","WI",43.4205,-88.3404
"954","Algoma","US","WI",44.61,-87.4386
"955","Afton","US","WI",NA,NA
"956","Adell","US","WI",NA,NA
"957","Adams","US","WI",43.9591,-89.8177
"958","Abrams","US","WI",44.7793,-88.0597
"959","Abbotsford","US","WI",44.9458,-90.3191
"960","Zillah","US","WA",46.4019,-120.2619
"961","York","US","WA",NA,NA
"962","Yelm","US","WA",46.9424,-122.6073
"963","Yakima Valley","US","WA",NA,NA
"964","Yakima","US","WA",46.6041,-120.5071
"965","Yacolt","US","WA",45.8668,-122.4085
"966","Woodway","US","WA",47.7825,-122.3846
"967","Woodland","US","WA",45.9086,-122.7399
"968","Woodinville","US","WA",47.7545,-122.1557
"969","Wildwood","US","WA",NA,NA
"970","White Salmon","US","WA",45.7278,-121.487
"971","White Center","US","WA",47.5174,-122.3539
"972","White","US","WA",NA,NA
"973","Whidbey Island","US","WA",NA,NA
"974","Westport","US","WA",46.8908,-124.1042
"975","West Seattle","US","WA",NA,NA
"976","West Richland","US","WA",46.2969,-119.3378
"977","West Lake Sammamish","US","WA",47.5719,-122.103
"978","Wenatchee","US","WA",47.4147,-120.3051
"979","Wellpinit","US","WA",47.8868,-117.987
"980","Washougal","US","WA",45.5792,-122.3533
"981","Warden","US","WA",46.9697,-119.0455
"982","Wapato","US","WA",46.4478,-120.4205
"983","Wallula","US","WA",46.0816,-118.9085
"984","Walla Walla","US","WA",46.0704,-118.3424
"985","Waldron","US","WA",48.6884,-123.036
"986","Waitsburg","US","WA",46.2701,-118.1544
"987","Wahluke","US","WA",NA,NA
"988","Verlot","US","WA",NA,NA
"989","Veradale","US","WA",47.6571,-117.1959
"990","Vashon Island","US","WA",NA,NA
"991","Vashon","US","WA",47.4488,-122.4573
"992","Vantage","US","WA",46.9447,-119.9899
"993","Vancouver","US","WA",45.6322,-122.6716
"994","University Place","US","WA",47.224,-122.5371
"995","Union Gap","US","WA",46.5567,-120.4753
"996","Union","US","WA",47.3569,-123.0994
"997","Tumwater","US","WA",46.9854,-122.9122
"998","Tumtum","US","WA",47.8927,-117.6702
"999","Tulalip","US","WA",NA,NA
"1000","Tukwila","US","WA",47.4626,-122.256
"1001","Tri-Cities","US","WA",NA,NA
"1002","Tracyton","US","WA",NA,NA
"1003","Totem Lake","US","WA",NA,NA
"1004","Toppenish","US","WA",46.3751,-120.313
"1005","Tonasket","US","WA",48.7085,-119.4368
"1006","Tillicum","US","WA",NA,NA
"1007","Tieton","US","WA",46.7026,-120.7554
"1008","Thorp","US","WA",47.0514,-120.6662
"1009","Tenino","US","WA",46.8573,-122.8512
"1010","Tanner","US","WA",NA,NA
"1011","Tacoma","US","WA",47.2551,-122.4416
"1012","Suquamish","US","WA",47.7311,-122.5524
"1013","Sunnyside","US","WA",46.3238,-120.0093
"1014","Sumner","US","WA",47.2022,-122.24
"1015","Summitview","US","WA",NA,NA
"1016","Sumas","US","WA",48.9996,-122.265
"1017","Sultan","US","WA",47.8623,-121.8172
"1018","Strandell","US","WA",NA,NA
"1019","Stevenson","US","WA",45.6941,-121.8827
"1020","Stevens","US","WA",NA,NA
"1021","Steilacoom","US","WA",47.173,-122.598
"1022","Stehekin","US","WA",48.3092,-120.6576
"1023","Stanwood","US","WA",48.2416,-122.3724
"1024","Springdale","US","WA",48.0572,-117.7414
"1025","Sprague","US","WA",47.3004,-117.9738
"1026","Spokane Valley","US","WA",47.6571,-117.2479
"1027","Spokane","US","WA",47.6573,-117.4123
"1028","Spangle","US","WA",47.4291,-117.3803
"1029","Spanaway","US","WA",47.0649,-122.4102
"1030","South Tacoma","US","WA",NA,NA
"1031","South Lake","US","WA",NA,NA
"1032","South Hill","US","WA",47.141,-122.2682
"1033","South Broadway","US","WA",NA,NA
"1034","South Bend","US","WA",46.669,-123.7859
"1035","Snoqualmie Pass","US","WA",47.4187,-121.412
"1036","Snoqualmie","US","WA",47.5272,-121.8243
"1037","Snohomish","US","WA",47.9124,-122.0931
"1038","Smokey Point","US","WA",NA,NA
"1039","Skagit Valley","US","WA",NA,NA
"1040","Silverdale","US","WA",47.6515,-122.693
"1041","Silver Creek","US","WA",46.527,-122.5995
"1042","Shoreline","US","WA",47.7572,-122.3447
"1043","Shelton","US","WA",47.2125,-123.1057
"1044","Sequim","US","WA",48.0797,-123.1037
"1045","Selah","US","WA",46.654,-120.5311
"1046","Sedro-Woolley","US","WA",48.5082,-122.2386
"1047","Seattle","US","WA",47.6036,-122.3295
"1048","SeaTac","US","WA",47.4341,-122.2743
"1049","Satsop","US","WA",47.0024,-123.4816
"1050","Sammamish","US","WA",47.6134,-122.0354
"1051","Salmon Creek","US","WA",45.7079,-122.6489
"1052","Ryderwood","US","WA",46.3733,-123.0437
"1053","Ruston","US","WA",47.2987,-122.5129
"1054","Royal City","US","WA",46.9025,-119.6314
"1055","Roy","US","WA",47.0033,-122.5433
"1056","Rosalia","US","WA",47.2343,-117.3705
"1057","Roosevelt","US","WA",45.7496,-120.2011
"1058","Rockford","US","WA",47.4523,-117.1326
"1059","Rock Island","US","WA",47.3715,-120.1436
"1060","Rochester","US","WA",46.8218,-123.0874
"1061","Riverside","US","WA",48.5012,-119.5085
"1062","River Road","US","WA",NA,NA
"1063","Ritzville","US","WA",47.1273,-118.3796
"1064","Ridgefield","US","WA",45.8154,-122.7459
"1065","Richmond Highlands","US","WA",NA,NA
"1066","Richmond Beach","US","WA",NA,NA
"1067","Richland","US","WA",46.2739,-119.2737
"1068","Republic","US","WA",48.6444,-118.7375
"1069","Renton","US","WA",47.4751,-122.2051
"1070","Redondo","US","WA",NA,NA
"1071","Redmond","US","WA",47.6786,-122.1316
"1072","Raymond","US","WA",46.6881,-123.7296
"1073","Ravensdale","US","WA",47.353,-121.9824
"1074","Rainier","US","WA",46.8888,-122.6903
"1075","Quincy","US","WA",47.2375,-119.8534
"1076","Quinault","US","WA",47.4677,-123.8465
"1077","Queen Anne","US","WA",NA,NA
"1078","Puyallup","US","WA",47.1904,-122.2956
"1079","Pullman","US","WA",46.7302,-117.1815
"1080","Puget Sound","US","WA",NA,NA
"1081","Prosser","US","WA",46.2064,-119.7688
"1082","Proebstel","US","WA",NA,NA
"1083","Preston","US","WA",47.5437,-121.9364
"1084","Prairie","US","WA",NA,NA
"1085","Poulsbo","US","WA",47.7363,-122.6468
"1086","Port Townsend","US","WA",48.1212,-122.7726
"1087","Port Orchard","US","WA",47.541,-122.6385
"1088","Port Hadlock","US","WA",48.0359,-122.7588
"1089","Port Angeles","US","WA",48.1187,-123.4313
"1090","Pomeroy","US","WA",46.474,-117.5894
"1091","Point Roberts","US","WA",48.9887,-123.0568
"1092","Plymouth","US","WA",45.9356,-119.3511
"1093","Pierce","US","WA",NA,NA
"1094","Paterson","US","WA",45.9397,-119.6031
"1095","Pasco","US","WA",46.2352,-119.0946
"1096","Parkland","US","WA",47.1554,-122.4323
"1097","Parker","US","WA",46.5017,-120.4658
"1098","Pacific","US","WA",47.2646,-122.2469
"1099","Oysterville","US","WA",46.549,-124.027
"1100","Othello","US","WA",46.8262,-119.1748
"1101","Oso","US","WA",NA,NA
"1102","Orting","US","WA",47.0976,-122.2022
"1103","Oroville","US","WA",48.9388,-119.4356
"1104","Orondo","US","WA",47.6235,-120.2279
"1105","Orchards","US","WA",45.663,-122.5661
"1106","Opportunity","US","WA",47.6568,-117.2398
"1107","Omak","US","WA",48.4108,-119.5272
"1108","Olympia","US","WA",47.0392,-122.8914
"1109","Okanogan","US","WA",48.3654,-119.5796
"1110","Ocean Shores","US","WA",47.0116,-124.1641
"1111","Ocean Park","US","WA",46.4915,-124.0495
"1112","Oakville","US","WA",46.8404,-123.2329
"1113","Oak Harbor","US","WA",48.2906,-122.6472
"1114","Northgate","US","WA",NA,NA
"1115","North Stanwood","US","WA",NA,NA
"1116","North Puyallup","US","WA",NA,NA
"1117","North Marysville","US","WA",48.0919,-122.1527
"1118","North Bonneville","US","WA",45.6409,-121.9717
"1119","North Bend","US","WA",47.4932,-121.7827
"1120","Normandy Park","US","WA",47.4461,-122.346
"1121","Nordland","US","WA",48.0466,-122.6913
"1122","Nine Mile Falls","US","WA",47.7768,-117.5439
"1123","Newport","US","WA",48.1825,-117.044
"1124","Newman Lake","US","WA",47.7246,-117.0689
"1125","Newcastle","US","WA",47.5377,-122.1654
"1126","Nespelem","US","WA",48.1664,-118.9767
"1127","Naval Air Station Whidbey Island","US","WA",NA,NA
"1128","National","US","WA",NA,NA
"1129","Naselle","US","WA",46.3654,-123.8115
"1130","Napavine","US","WA",46.5756,-122.911
"1131","Nahcotta","US","WA",NA,NA
"1132","Naches","US","WA",46.7309,-120.6997
"1133",NA,"US","WA",NA,NA
"1134","Mukilteo","US","WA",47.8977,-122.2937
"1135","Moxee","US","WA",46.5562,-120.392
"1136","Mountlake Terrace","US","WA",47.788,-122.3111
"1137","Mountlake Ter","US","WA",NA,NA
"1138","Mount Vernon","US","WA",48.4162,-122.3389
"1139","Mount Rainier National Park","US","WA",NA,NA
"1140","Mossyrock","US","WA",46.5295,-122.4845
"1141","Moses Lake","US","WA",47.1319,-119.2772
"1142","Morton","US","WA",46.5547,-122.2751
"1143","Montesano","US","WA",46.9838,-123.6008
"1144","Monroe","US","WA",47.8524,-121.9815
"1145","Minnehaha","US","WA",NA,NA
"1146","Mineral","US","WA",46.719,-122.1877
"1147","Milton","US","WA",47.249,-122.3217
"1148","Millwood","US","WA",47.6851,-117.282
"1149","Mill Plain","US","WA",NA,NA
"1150","Mill Creek","US","WA",47.8572,-122.2204
"1151","Mica","US","WA",47.5607,-117.2142
"1152","Metaline Falls","US","WA",48.8638,-117.372
"1153","Mercer Island","US","WA",47.5781,-122.2113
"1154","Menlo","US","WA",NA,NA
"1155","Medina","US","WA",47.6162,-122.2389
"1156","Medical Lake","US","WA",47.5724,-117.6827
"1157","Mead","US","WA",47.7619,-117.356
"1158","McNeil Island","US","WA",NA,NA
"1159","McKenna","US","WA",46.9338,-122.5596
"1160","McChord AFB","US","WA",NA,NA
"1161","Matlock","US","WA",47.2352,-123.4073
"1162","Marysville","US","WA",48.0611,-122.1769
"1163","Marshall","US","WA",NA,NA
"1164","Marlin","US","WA",47.407,-118.9851
"1165","Markham","US","WA",NA,NA
"1166","Marblemount","US","WA",48.5274,-121.416
"1167","Maple Valley","US","WA",47.3938,-122.0453
"1168","Manson","US","WA",47.8853,-120.1597
"1169","Mansfield","US","WA",47.8118,-119.6376
"1170","Maltby","US","WA",NA,NA
"1171","Madrona","US","WA",NA,NA
"1172","Madison Park","US","WA",NA,NA
"1173","Mabton","US","WA",46.2109,-119.9985
"1174","Lynnwood","US","WA",47.8253,-122.2924
"1175","Lynden","US","WA",48.9429,-122.4508
"1176","Lyle","US","WA",45.6939,-121.2855
"1177","Longview","US","WA",46.1468,-122.9505
"1178","Longbranch","US","WA",47.2145,-122.7591
"1179","Long Beach","US","WA",46.3523,-124.0544
"1180","Littlerock","US","WA",NA,NA
"1181","Lincoln","US","WA",47.8294,-118.419
"1182","Liberty Lake","US","WA",47.6682,-117.1009
"1183","Lewis","US","WA",NA,NA
"1184","Leavenworth","US","WA",47.5972,-120.6595
"1185","Langley","US","WA",48.0399,-122.4062
"1186","Lakewood","US","WA",47.162,-122.5149
"1187","Lakebay","US","WA",47.2504,-122.7549
"1188","Lake Stevens","US","WA",NA,NA
"1189","Lake Forest Park","US","WA",47.7546,-122.2779
"1190","Lake City","US","WA",NA,NA
"1191","Lacey","US","WA",47.044,-122.8232
"1192","La Push","US","WA",47.9082,-124.6366
"1193","La Conner","US","WA",48.3887,-122.4972
"1194","La Center","US","WA",45.8617,-122.6726
"1195","Kittitas","US","WA",46.9847,-120.4175
"1196","Kirkland","US","WA",47.6789,-122.2067
"1197","Kingston","US","WA",47.798,-122.4977
"1198","Keyport","US","WA",47.7025,-122.6235
"1199","Key Center","US","WA",NA,NA
"1200","Kettle Falls","US","WA",48.6105,-118.0621
"1201","Kent","US","WA",47.3803,-122.2374
"1202","Kennewick","US","WA",46.208,-119.117
"1203","Kenmore","US","WA",47.7588,-122.2437
"1204","Kelso","US","WA",46.1442,-122.8987
"1205","Kalama","US","WA",46.0081,-122.8423
"1206","Jovita","US","WA",NA,NA
"1207","Joint Base Lewis McChord","US","WA",NA,NA
"1208","Issaquah","US","WA",47.5301,-122.0338
"1209","Interbay","US","WA",NA,NA
"1210","Ilwaco","US","WA",46.3088,-124.0353
"1211","Hoquiam","US","WA",46.9798,-123.8869
"1212","Home","US","WA",NA,NA
"1213","Headquarters","US","WA",NA,NA
"1214","Hazel Dell","US","WA",NA,NA
"1215","Hatton","US","WA",46.7764,-118.8282
"1216","Harrington","US","WA",47.4829,-118.2568
"1217","Greenacres","US","WA",47.657,-117.1729
"1218","Grays Harbor","US","WA",NA,NA
"1219","Granite Falls","US","WA",48.0816,-121.9693
"1220","Granger","US","WA",46.3377,-120.1886
"1221","Grandview","US","WA",46.2561,-119.9012
"1222","Grand Coulee","US","WA",47.9428,-119.0004
"1223","Graham","US","WA",47.0561,-122.2948
"1224","Goldendale","US","WA",45.823,-120.8254
"1225","Gold Bar","US","WA",47.8555,-121.6976
"1226","Glenwood","US","WA",46.0184,-121.2928
"1227","Gig Harbor","US","WA",47.328,-122.5804
"1228","Georgetown","US","WA",NA,NA
"1229","George","US","WA",47.0811,-119.8565
"1230","Friday Harbor","US","WA",48.5345,-123.0165
"1231","Fremont","US","WA",NA,NA
"1232","Freeland","US","WA",48.0096,-122.5266
"1233","Fox Island","US","WA",47.2737,-122.6511
"1234","Fort Lewis","US","WA",NA,NA
"1235","Forks","US","WA",47.9501,-124.3854
"1236","Fife","US","WA",47.2368,-122.3567
"1237","Ferndale","US","WA",48.8476,-122.5935
"1238","Federal Way","US","WA",47.3011,-122.3299
"1239","Fall City","US","WA",47.5681,-121.8908
"1240","Fairchild AFB","US","WA",NA,NA
"1241","Factoria","US","WA",NA,NA
"1242","Everett","US","WA",47.9766,-122.2059
"1243","Ephrata","US","WA",47.3187,-119.5513
"1244","Enumclaw","US","WA",47.2043,-121.9914
"1245","Elma","US","WA",47.0038,-123.4038
"1246","Ellensburg","US","WA",46.997,-120.5487
"1247","Elk","US","WA",48.017,-117.2776
"1248","Edmonds","US","WA",47.8112,-122.3769
"1249","Edgewood","US","WA",47.2369,-122.2911
"1250","Eatonville","US","WA",46.8673,-122.2686
"1251","Eastsound","US","WA",48.6939,-122.9111
"1252","East Wenatchee","US","WA",47.4148,-120.2946
"1253","East Valley","US","WA",NA,NA
"1254","East Olympia","US","WA",NA,NA
"1255","E Wenatchee","US","WA",NA,NA
"1256","Duvall","US","WA",47.7405,-121.9861
"1257","DuPont","US","WA",47.0958,-122.6295
"1258","Dunlap","US","WA",NA,NA
"1259","Dixie","US","WA",46.1405,-118.1557
"1260","Dewey","US","WA",NA,NA
"1261","Des Moines","US","WA",47.4078,-122.3199
"1262","Deer Park","US","WA",47.9543,-117.472
"1263","Decatur","US","WA",NA,NA
"1264","Dayton","US","WA",46.3219,-117.9758
"1265","Davenport","US","WA",47.6541,-118.1491
"1266","Dartford","US","WA",NA,NA
"1267","Custer","US","WA",48.9181,-122.6414
"1268","Curlew","US","WA",48.8806,-118.601
"1269","Covington","US","WA",47.359,-122.1179
"1270","Coupeville","US","WA",48.2186,-122.6856
"1271","Copalis Beach","US","WA",47.1149,-124.167
"1272","Connell","US","WA",46.6615,-118.8606
"1273","Concrete","US","WA",48.5389,-121.7518
"1274","Colville","US","WA",48.5466,-117.9047
"1275","Columbia City","US","WA",NA,NA
"1276","Columbia","US","WA",NA,NA
"1277","Colton","US","WA",46.568,-117.1298
"1278","College Place","US","WA",46.0342,-118.3886
"1279","Colfax","US","WA",46.8794,-117.3648
"1280","Colbert","US","WA",47.8323,-117.353
"1281","Coal Creek","US","WA",NA,NA
"1282","Clinton","US","WA",47.9795,-122.3574
"1283","Clearlake","US","WA",48.4638,-122.2345
"1284","Cle Elum","US","WA",47.195,-120.9394
"1285","Clayton","US","WA",47.995,-117.5699
"1286","Clarkston","US","WA",46.4136,-117.0456
"1287","Clallam Bay","US","WA",48.2537,-124.2602
"1288","City of Bellevue","US","WA",NA,NA
"1289","Chimacum","US","WA",48.0118,-122.7714
"1290","Chewelah","US","WA",48.2814,-117.7156
"1291","Cheney","US","WA",47.489,-117.5748
"1292","Chelan","US","WA",47.8398,-120.0138
"1293","Chehalis","US","WA",46.6621,-122.9646
"1294","Chattaroy","US","WA",47.8939,-117.3528
"1295","Centralia","US","WA",46.7289,-122.953
"1296","Castle Rock","US","WA",46.2751,-122.9072
"1297","Cashmere","US","WA",47.5223,-120.47
"1298","Cascade Park","US","WA",NA,NA
"1299","Carnation","US","WA",47.649,-121.9135
"1300","Carlsborg","US","WA",NA,NA
"1301","Capitol Hill","US","WA",NA,NA
"1302","Camp Murray","US","WA",NA,NA
"1303","Camas","US","WA",45.5869,-122.402
"1304","Camano Island","US","WA",48.2399,-122.4005
"1305","Burlington","US","WA",48.4685,-122.3303
"1306","Burien","US","WA",47.4686,-122.3394
"1307","Burbank","US","WA",46.1992,-119.0156
"1308","Bucoda","US","WA",46.7999,-122.8679
"1309","Buckley","US","WA",47.163,-122.0252
"1310","Bryn Mawr","US","WA",NA,NA
"1311","Brush Prairie","US","WA",45.734,-122.5464
"1312","Brownsville","US","WA",NA,NA
"1313","Broadway","US","WA",NA,NA
"1314","Brinnon","US","WA",47.6961,-122.8972
"1315","Brier","US","WA",47.792,-122.2724
"1316","Bridgeport","US","WA",48.0074,-119.67
"1317","Brewster","US","WA",48.0997,-119.7809
"1318","Bremerton Naval Station","US","WA",NA,NA
"1319","Bremerton","US","WA",47.565,-122.6275
"1320","Bow","US","WA",48.5603,-122.3981
"1321","Bothell","US","WA",47.7614,-122.2056
"1322","Boston Harbor","US","WA",NA,NA
"1323","Bonney Lake","US","WA",47.1917,-122.1706
"1324","Blue Ridge","US","WA",NA,NA
"1325","Blakeslee Junction","US","WA",NA,NA
"1326","Blaine","US","WA",48.994,-122.7489
"1327","Black Diamond","US","WA",47.3089,-122.002
"1328","Bitter Lake","US","WA",NA,NA
"1329","Birch Bay","US","WA",NA,NA
"1330","Bingen","US","WA",45.7151,-121.4662
"1331","Bethel","US","WA",NA,NA
"1332","Benton City","US","WA",46.2654,-119.4876
"1333","Bellingham","US","WA",48.7524,-122.4712
"1334","Bellevue","US","WA",47.61,-122.1879
"1335","Belfair","US","WA",47.4492,-122.8285
"1336","Beacon Hill","US","WA",NA,NA
"1337","Beach","US","WA",NA,NA
"1338","Battle Ground","US","WA",45.7809,-122.5337
"1339","Baring","US","WA",47.7719,-121.4849
"1340","Bangor","US","WA",NA,NA
"1341","Ballard","US","WA",NA,NA
"1342","Bainbridge Island","US","WA",47.6273,-122.521
"1343","Auburn","US","WA",47.3074,-122.2304
"1344","Arlington Heights","US","WA",NA,NA
"1345","Arlington","US","WA",48.1943,-122.1264
"1346","Appleton","US","WA",45.812,-121.2729
"1347","Anacortes","US","WA",48.5175,-122.6117
"1348","Ames Lake","US","WA",NA,NA
"1349","Amboy","US","WA",45.9194,-122.4219
"1350","Amanda Park","US","WA",47.4592,-123.8975
"1351","Allyn","US","WA",47.379,-122.8311
"1352","Algona","US","WA",47.2783,-122.2496
"1353","Alderwood","US","WA",NA,NA
"1354","Alderton","US","WA",NA,NA
"1355","Alderdale","US","WA",NA,NA
"1356","Airway Heights","US","WA",47.6443,-117.5931
"1357","Adna","US","WA",NA,NA
"1358","Adelaide","US","WA",NA,NA
"1359","Aberdeen","US","WA",46.9759,-123.816
"1360","Woodstock","US","VT",43.6254,-72.5176
"1361","Wolcott","US","VT",44.5472,-72.4597
"1362","Winooski","US","VT",44.4914,-73.1876
"1363","Windsor","US","VT",43.4811,-72.3858
"1364","Wilmington","US","VT",42.8669,-72.8685
"1365","Williston","US","VT",44.4532,-73.1167
"1366","Williamstown","US","VT",44.1188,-72.5413
"1367","Wilder","US","VT",NA,NA
"1368","Whitingham","US","VT",42.7891,-72.8842
"1369","White River Junction","US","VT",43.6518,-72.3185
"1370","Westminster","US","VT",43.0721,-72.4657
"1371","Westford","US","VT",44.6149,-73.015
"1372","West Wardsboro","US","VT",43.0298,-72.8875
"1373","West Topsham","US","VT",44.1178,-72.308
"1374","West Pawlet","US","VT",43.3554,-73.2513
"1375","West Halifax","US","VT",42.7849,-72.7686
"1376","West Dover","US","VT",42.9372,-72.8497
"1377","Wells","US","VT",43.4188,-73.2053
"1378","Websterville","US","VT",NA,NA
"1379","Waterford","US","VT",44.3547,-71.9071
"1380","Waterbury Center","US","VT",44.3787,-72.7229
"1381","Waterbury","US","VT",44.3387,-72.7573
"1382","Warren","US","VT",44.1135,-72.8558
"1383","Wardsboro","US","VT",43.0404,-72.7902
"1384","Wallingford","US","VT",43.4737,-72.9769
"1385","Waitsfield","US","VT",44.1843,-72.8389
"1386","Vershire","US","VT",43.9759,-72.3496
"1387","Vergennes","US","VT",44.1673,-73.2534
"1388","Underhill","US","VT",44.5242,-72.9424
"1389","Townshend","US","VT",43.0448,-72.6663
"1390","Texas","US","VT",NA,NA
"1391","Swanton","US","VT",44.9174,-73.1242
"1392","Sunderland","US","VT",43.1165,-73.0942
"1393","Stratton Mountain","US","VT",NA,NA
"1394","Stowe","US","VT",44.4653,-72.6851
"1395","Starksboro","US","VT",44.2308,-73.0568
"1396","St George","US","VT",44.379,-73.1269
"1397","Springfield","US","VT",43.2966,-72.4815
"1398","South Royalton","US","VT",43.8203,-72.5217
"1399","South Hero","US","VT",44.6459,-73.3009
"1400","South Burlington","US","VT",44.4555,-73.1791
"1401","South Barre","US","VT",NA,NA
"1402","Shelburne","US","VT",44.3761,-73.2261
"1403","Sheffield","US","VT",44.6017,-72.1139
"1404","Shaftsbury","US","VT",42.9463,-73.2117
"1405","Searsburg","US","VT",42.895,-72.9774
"1406","Saxtons River","US","VT",43.1384,-72.5112
"1407","Salisbury","US","VT",43.8962,-73.1007
"1408","Saint Johnsbury","US","VT",NA,NA
"1409","Saint George","US","VT",NA,NA
"1410","Saint Albans","US","VT",NA,NA
"1411","S Burlington","US","VT",NA,NA
"1412","Rutland","US","VT",43.6051,-72.9783
"1413","Rochester","US","VT",43.8746,-72.8071
"1414","Richmond","US","VT",44.403,-72.9953
"1415","Richford","US","VT",44.9952,-72.6728
"1416","Randolph Center","US","VT",43.9401,-72.607
"1417","Randolph","US","VT",43.9228,-72.6655
"1418","Quechee","US","VT",43.6471,-72.4202
"1419","Putney","US","VT",42.9726,-72.522
"1420","Proctorsville","US","VT",43.3834,-72.6372
"1421","Proctor","US","VT",43.6616,-73.0356
"1422","Pownal","US","VT",42.7652,-73.2357
"1423","Poultney","US","VT",43.5163,-73.2328
"1424","Plymouth","US","VT",43.5344,-72.7224
"1425","Plainfield","US","VT",44.2777,-72.4314
"1426","Pittsford","US","VT",43.7059,-73.0266
"1427","Orwell","US","VT",43.8039,-73.2963
"1428","Norwich","US","VT",43.7145,-72.3085
"1429","Northfield","US","VT",44.1498,-72.6558
"1430","North Troy","US","VT",44.994,-72.4077
"1431","North Springfield","US","VT",43.3286,-72.5409
"1432","North Hartland","US","VT",43.5921,-72.3529
"1433","North Ferrisburgh","US","VT",NA,NA
"1434","North Clarendon","US","VT",43.5713,-72.9708
"1435","North Bennington","US","VT",42.9322,-73.2427
"1436","Newport","US","VT",44.9353,-72.2106
"1437","Newfane","US","VT",42.9882,-72.6559
"1438","New Haven","US","VT",44.1224,-73.1749
"1439",NA,"US","VT",NA,NA
"1440","Morrisville","US","VT",44.5621,-72.5985
"1441","Morristown","US","VT",44.5558,-72.6219
"1442","Montpelier","US","VT",44.2603,-72.5763
"1443","Milton","US","VT",44.6399,-73.1134
"1444","Middlebury","US","VT",44.015,-73.1671
"1445","Marshfield","US","VT",44.3486,-72.3542
"1446","Marlboro","US","VT",42.8596,-72.7255
"1447","Manchester Center","US","VT",43.1691,-73.0487
"1448","Manchester","US","VT",43.1632,-73.0721
"1449","Lyndonville","US","VT",44.5346,-72.0054
"1450","Lyndon Center","US","VT",44.5377,-72.0124
"1451","Lyndon","US","VT",44.5163,-72.0104
"1452","Ludlow","US","VT",43.3955,-72.7027
"1453","Lowell","US","VT",44.801,-72.4531
"1454","Londonderry","US","VT",43.2203,-72.8209
"1455","Killington Ski Area","US","VT",NA,NA
"1456","Killington","US","VT",43.6577,-72.773
"1457","Johnson","US","VT",44.6342,-72.6768
"1458","Jericho","US","VT",44.5057,-72.9954
"1459","Jeffersonville","US","VT",44.645,-72.8289
"1460","Jay","US","VT",44.9482,-72.4373
"1461","Hyde Park","US","VT",44.5965,-72.6143
"1462","Hinesburg","US","VT",44.335,-73.1097
"1463","Hartford","US","VT",43.6611,-72.3405
"1464","Hardwick","US","VT",44.5043,-72.3654
"1465","Greensboro","US","VT",44.5761,-72.294
"1466","Graniteville","US","VT",44.1467,-72.4933
"1467","Grand Isle","US","VT",44.7201,-73.2945
"1468","Glover","US","VT",44.7059,-72.1875
"1469","Georgia","US","VT",44.7296,-73.117
"1470","Florence","US","VT",43.7154,-73.0632
"1471","Fletcher","US","VT",44.6838,-72.9078
"1472","Fairlee","US","VT",43.907,-72.1478
"1473","Fairfield","US","VT",44.8028,-72.9386
"1474","Fairfax","US","VT",44.6583,-73.0089
"1475","Essex Junction","US","VT",44.4908,-73.111
"1476","Essex Jct","US","VT",NA,NA
"1477","Essex","US","VT",44.511,-73.0582
"1478","Enosburgh","US","VT",NA,NA
"1479","Enosburg Falls","US","VT",44.9064,-72.8055
"1480","East Montpelier","US","VT",44.2704,-72.4873
"1481","East Georgia","US","VT",NA,NA
"1482","East Burke","US","VT",44.5888,-71.9414
"1483","East Barre","US","VT",44.1602,-72.4501
"1484","Duxbury","US","VT",44.3163,-72.7612
"1485","Derby Line","US","VT",45.0013,-72.1023
"1486","Derby","US","VT",44.9541,-72.1329
"1487","Danville","US","VT",44.4106,-72.1394
"1488","Danby","US","VT",43.3534,-72.9975
"1489","Concord","US","VT",44.4288,-71.8892
"1490","Colchester","US","VT",44.5364,-73.2089
"1491","Chittenden","US","VT",43.7099,-72.9368
"1492","Chester","US","VT",43.2606,-72.5918
"1493","Charlotte","US","VT",44.3112,-73.2481
"1494","Cavendish","US","VT",43.3823,-72.6105
"1495","Castleton","US","VT",43.6123,-73.1756
"1496","Canaan","US","VT",44.9995,-71.5332
"1497","Camp Johnson","US","VT",NA,NA
"1498","Cambridge","US","VT",44.6448,-72.8757
"1499","Cabot","US","VT",44.4023,-72.3112
"1500","Burlington","US","VT",44.4759,-73.2128
"1501","Brownsville","US","VT",43.4652,-72.4744
"1502","Brookfield","US","VT",44.038,-72.5957
"1503","Bristol","US","VT",44.1334,-73.0795
"1504","Bridport","US","VT",43.9878,-73.3129
"1505","Bread Loaf","US","VT",NA,NA
"1506","Brattleboro","US","VT",42.8541,-72.5589
"1507","Brandon","US","VT",43.7999,-73.0916
"1508","Bradford","US","VT",43.9928,-72.1283
"1509","Bolton Valley","US","VT",NA,NA
"1510","Bolton","US","VT",44.3775,-72.9026
"1511","Bethel","US","VT",43.8334,-72.6349
"1512","Berlin","US","VT",44.2115,-72.579
"1513","Benson","US","VT",43.7098,-73.2974
"1514","Bennington","US","VT",42.8767,-73.1982
"1515","Bellows Falls","US","VT",43.1292,-72.4457
"1516","Barton","US","VT",44.7477,-72.176
"1517","Barre","US","VT",44.1969,-72.5015
"1518","Ascutney","US","VT",43.4068,-72.4075
"1519","Arlington","US","VT",43.0692,-73.1566
"1520","Alburgh","US","VT",44.977,-73.2999
"1521","St Thomas","US","VI",NA,NA
"1522","St John","US","VI",NA,NA
"1523","Saint Croix","US","VI",NA,NA
"1524",NA,"US","VI",NA,NA
"1525","Kingshill","US","VI",NA,NA
"1526","Christiansted","US","VI",NA,NA
"1527","Charlotte Amalie","US","VI",NA,NA
"1528","Zuni","US","VA",36.8671,-76.8324
"1529","Zion Crossroads","US","VA",NA,NA
"1530","Yorktown","US","VA",37.2353,-76.5121
"1531","Yorkshire","US","VA",NA,NA
"1532","Yards","US","VA",NA,NA
"1533","Wytheville","US","VA",36.9498,-81.0835
"1534","Wythe","US","VA",NA,NA
"1535","Wylliesburg","US","VA",36.8559,-78.591
"1536","Woolwine","US","VA",36.7899,-80.2767
"1537","Woodstock","US","VA",38.8902,-78.4985
"1538","Woodlawn Terrace","US","VA",NA,NA
"1539","Woodlawn","US","VA",36.724,-80.824
"1540","Woodford","US","VA",38.1134,-77.4092
"1541","Woodbridge","US","VA",38.661,-77.2475
"1542","Withams","US","VA",37.9455,-75.5774
"1543","Wise","US","VA",36.9761,-82.5765
"1544","Wintergreen","US","VA",NA,NA
"1545","Windsor","US","VA",36.8076,-76.7422
"1546","Winchester","US","VA",39.184,-78.1641
"1547","Willow Oaks","US","VA",NA,NA
"1548","Williamsville","US","VA",38.1952,-79.5712
"1549","Williamsburg","US","VA",37.2756,-76.7097
"1550","Widewater","US","VA",NA,NA
"1551","Weyers Cave","US","VA",38.2912,-78.9063
"1552","Westwood","US","VA",NA,NA
"1553","Westmoreland","US","VA",NA,NA
"1554","Western Hills","US","VA",NA,NA
"1555","West Springfield","US","VA",38.7724,-77.2214
"1556","West Point","US","VA",37.5366,-76.8002
"1557","West McLean","US","VA",NA,NA
"1558","West Gate","US","VA",NA,NA
"1559","West Falls Church","US","VA",NA,NA
"1560","West Augusta","US","VA",38.2639,-79.3152
"1561","Weber City","US","VA",36.6276,-82.5549
"1562","Waynesboro","US","VA",38.0655,-78.891
"1563","Waverly","US","VA",37.0353,-77.0921
"1564","Waterford","US","VA",39.1869,-77.6081
"1565","Washington","US","VA",38.7118,-78.1603
"1566","Warsaw","US","VA",37.9583,-76.7572
"1567","Warrenton","US","VA",38.7136,-77.7955
"1568","Warren","US","VA",NA,NA
"1569","Warfield","US","VA",36.9366,-77.7456
"1570","Wallops Island","US","VA",37.844,-75.4791
"1571","Walkerton","US","VA",37.7265,-77.0228
"1572","Wakefield","US","VA",36.9703,-76.9825
"1573","Wadesville","US","VA",NA,NA
"1574","Virginia Beach","US","VA",36.7553,-76.0596
"1575","Virginia Bch","US","VA",NA,NA
"1576","Vinton","US","VA",37.2762,-79.8999
"1577","Villa Heights","US","VA",NA,NA
"1578","Vienna","US","VA",38.9004,-77.2636
"1579","Victoria","US","VA",36.9945,-78.227
"1580","Verona","US","VA",38.2028,-79.0076
"1581","Vansant","US","VA",37.2317,-82.0997
"1582","Valley View","US","VA",NA,NA
"1583","Urbanna","US","VA",37.6345,-76.5744
"1584","University of Richmond","US","VA",NA,NA
"1585","University","US","VA",NA,NA
"1586","Unionville","US","VA",38.2619,-77.9637
"1587","Union Hall","US","VA",36.9972,-79.691
"1588","Union","US","VA",NA,NA
"1589","Tysons Corner","US","VA",38.923,-77.2263
"1590","Tysons","US","VA",NA,NA
"1591","Tuckahoe","US","VA",37.5896,-77.557
"1592","Troy","US","VA",37.9407,-78.2451
"1593","Troutville","US","VA",37.4141,-79.8796
"1594","Triangle","US","VA",38.5461,-77.3364
"1595","Toms Brook","US","VA",38.9459,-78.4407
"1596","Toano","US","VA",37.3809,-76.8053
"1597","Timberville","US","VA",38.6369,-78.7737
"1598","Tidewater","US","VA",NA,NA
"1599","Thornburg","US","VA",38.1338,-77.5128
"1600","The Plains","US","VA",38.8621,-77.7729
"1601","The Links","US","VA",NA,NA
"1602","Tazewell","US","VA",37.1162,-81.5187
"1603","Tappahannock","US","VA",37.9287,-76.8613
"1604","Tabb","US","VA",NA,NA
"1605","Sweet Briar","US","VA",NA,NA
"1606","Sutherland","US","VA",37.1965,-77.5614
"1607","Sussex","US","VA",NA,NA
"1608","Surry","US","VA",37.1376,-76.8351
"1609","Sunnyview","US","VA",NA,NA
"1610","Sumerduck","US","VA",38.4771,-77.7402
"1611","Suffolk","US","VA",36.7312,-76.589
"1612","Stuarts Draft","US","VA",38.0307,-79.0342
"1613","Stuart","US","VA",36.6408,-80.2665
"1614","Strasburg","US","VA",38.9891,-78.3586
"1615","Stony Creek","US","VA",36.9457,-77.4002
"1616","Stone Ridge","US","VA",NA,NA
"1617","Sterling Park","US","VA",NA,NA
"1618","Sterling","US","VA",39.0331,-77.4066
"1619","Stephenson","US","VA",39.2377,-78.1096
"1620","Stephens City","US","VA",39.0837,-78.2178
"1621","Staunton","US","VA",38.15,-79.0727
"1622","State Farm","US","VA",NA,NA
"1623","Stanleytown","US","VA",36.7432,-79.9618
"1624","Stanley","US","VA",38.5762,-78.5067
"1625","Stanardsville","US","VA",38.2974,-78.4406
"1626","Staffordsville","US","VA",37.2406,-80.7178
"1627","Stafford","US","VA",38.4235,-77.4082
"1628","Springfield District","US","VA",NA,NA
"1629","Springfield","US","VA",38.779,-77.1917
"1630","Spring Grove","US","VA",37.1664,-76.9709
"1631","Spotsylvania Courthouse","US","VA",NA,NA
"1632","Spotsylvania","US","VA",38.2015,-77.5888
"1633","Sperryville","US","VA",38.6563,-78.2248
"1634","Southampton","US","VA",NA,NA
"1635","South Riding","US","VA",NA,NA
"1636","South Richmond","US","VA",NA,NA
"1637","South Hill","US","VA",36.7267,-78.1299
"1638","South Chesterfield","US","VA",NA,NA
"1639","South Boston","US","VA",36.6989,-78.9013
"1640","Smithfield","US","VA",36.9813,-76.6339
"1641","Skippers","US","VA",36.6209,-77.5532
"1642","Simon Island","US","VA",NA,NA
"1643","Short Pump","US","VA",NA,NA
"1644","Shirlington","US","VA",NA,NA
"1645","Shenandoah Valley","US","VA",NA,NA
"1646","Shenandoah","US","VA",38.4859,-78.6213
"1647","Shawsville","US","VA",37.1733,-80.2452
"1648","Seven Corners","US","VA",NA,NA
"1649","Scottsville","US","VA",37.7988,-78.4949
"1650","Schuyler","US","VA",37.7927,-78.6994
"1651","Sandy Hook","US","VA",37.7592,-77.9083
"1652","Sandston","US","VA",37.5229,-77.313
"1653","Saluda","US","VA",37.6067,-76.5965
"1654","Saltville","US","VA",36.8826,-81.7601
"1655","Salem","US","VA",37.2937,-80.0531
"1656","Saint Stephens Church","US","VA",NA,NA
"1657","Saint Paul","US","VA",NA,NA
"1658","Saint Luke","US","VA",NA,NA
"1659","Saint George","US","VA",NA,NA
"1660","Saint Charles","US","VA",NA,NA
"1661","Ruthville","US","VA",NA,NA
"1662","Ruther Glen","US","VA",37.9349,-77.4732
"1663","Rustburg","US","VA",37.2777,-79.0992
"1664","Russell","US","VA",NA,NA
"1665","Rural Retreat","US","VA",36.8927,-81.2759
"1666","Rural","US","VA",NA,NA
"1667","Ruckersville","US","VA",38.2332,-78.3683
"1668","Royal City","US","VA",NA,NA
"1669","Round Hill","US","VA",39.135,-77.7689
"1670","Rosslyn","US","VA",NA,NA
"1671","Rose Hill","US","VA",38.7888,-77.1121
"1672","Rocky Mount","US","VA",36.995,-79.8893
"1673","Rocky Gap","US","VA",37.2425,-81.1091
"1674","Rockville","US","VA",37.7281,-77.6672
"1675","Rochelle","US","VA",38.3062,-78.2725
"1676","Roanoke","US","VA",37.2715,-79.9405
"1677","Riverville","US","VA",NA,NA
"1678","Ringgold","US","VA",36.6101,-79.2933
"1679","Ridgeway","US","VA",36.5772,-79.8584
"1680","Richmond Int Airport","US","VA",NA,NA
"1681","Richmond","US","VA",37.5407,-77.4336
"1682","Richlands","US","VA",37.0944,-81.803
"1683","Richardsville","US","VA",38.4011,-77.7329
"1684","Rich Patch Mines","US","VA",NA,NA
"1685","Rice","US","VA",37.274,-78.2924
"1686","Reston","US","VA",38.9597,-77.3545
"1687","Red Oak","US","VA",36.7857,-78.6133
"1688","Raphine","US","VA",37.9373,-79.2324
"1689","Radiant","US","VA",38.313,-78.2063
"1690","Radford","US","VA",37.1207,-80.59
"1691","Rabat","US","VA",NA,NA
"1692","Quinton","US","VA",37.5333,-77.1277
"1693","Quicksburg","US","VA",38.7002,-78.682
"1694","Quantico","US","VA",38.5221,-77.2909
"1695","Purcellville","US","VA",39.1367,-77.7138
"1696","Pungoteague","US","VA",37.6305,-75.8139
"1697","Pulaski","US","VA",37.0494,-80.7799
"1698","Provost","US","VA",NA,NA
"1699","Providence Forge","US","VA",37.4414,-77.0421
"1700","Providence","US","VA",NA,NA
"1701","Prospect","US","VA",37.3048,-78.5606
"1702","Prince William","US","VA",NA,NA
"1703","Prince George","US","VA",37.2209,-77.2867
"1704","Powhatan","US","VA",37.5419,-77.919
"1705","Pounding Mill","US","VA",37.0758,-81.7102
"1706","Pound","US","VA",37.1234,-82.601
"1707","Potomac Falls","US","VA",NA,NA
"1708","Possum Point","US","VA",NA,NA
"1709","Portsmouth","US","VA",36.8327,-76.2977
"1710","Poquoson","US","VA",37.1218,-76.3974
"1711","Philomont","US","VA",NA,NA
"1712","Petersburg","US","VA",37.2282,-77.4035
"1713","Pennington Gap","US","VA",36.7609,-83.0222
"1714","Penn Laird","US","VA",38.3881,-78.8044
"1715","Penhook","US","VA",36.9822,-79.6277
"1716","Pearisburg","US","VA",37.327,-80.7354
"1717","Patrick Henry","US","VA",NA,NA
"1718","Patna","US","VA",NA,NA
"1719","Partlow","US","VA",38.0394,-77.64
"1720","Parksley","US","VA",37.7822,-75.654
"1721","Park Place","US","VA",NA,NA
"1722","Park District","US","VA",NA,NA
"1723","Paris","US","VA",39.004,-77.9484
"1724","Pamplin","US","VA",NA,NA
"1725","Palmyra","US","VA",37.8612,-78.2636
"1726","Painter","US","VA",37.5863,-75.7837
"1727","Owens","US","VA",NA,NA
"1728","Orkney Springs","US","VA",38.7954,-78.8132
"1729","Orange","US","VA",38.2449,-78.1119
"1730","Onley","US","VA",37.6927,-75.7141
"1731","Onancock","US","VA",37.7117,-75.7471
"1732","Old Dominion","US","VA",NA,NA
"1733","Oceana","US","VA",NA,NA
"1734","Occoquan","US","VA",38.6846,-77.2611
"1735","Oakwood","US","VA",37.2119,-82.007
"1736","Oakton","US","VA",38.8809,-77.3012
"1737","Oak Hall","US","VA",37.9373,-75.5458
"1738","Nottoway","US","VA",NA,NA
"1739","Norton","US","VA",36.9359,-82.6235
"1740","North Tazewell","US","VA",37.1332,-81.5267
"1741","North Shore","US","VA",NA,NA
"1742","North Garden","US","VA",37.9398,-78.6374
"1743","North Chesterfield","US","VA",NA,NA
"1744","North","US","VA",37.4524,-76.4169
"1745","Norge","US","VA",NA,NA
"1746","Norfolk Naval Station","US","VA",NA,NA
"1747","Norfolk","US","VA",36.8468,-76.2851
"1748","Nokesville","US","VA",38.6984,-77.5793
"1749","Nickelsville","US","VA",36.753,-82.4139
"1750","Newport News","US","VA",37.0835,-76.4806
"1751","Newport","US","VA",37.2951,-80.4948
"1752","Newington","US","VA",38.7377,-77.184
"1753","New Town","US","VA",37.9156,-77.143
"1754","New River","US","VA",NA,NA
"1755","New Point","US","VA",37.3458,-76.2806
"1756","New Market","US","VA",38.6472,-78.6721
"1757","New Kent","US","VA",37.5181,-76.9783
"1758","New Church","US","VA",37.9789,-75.5315
"1759","New Castle","US","VA",37.5029,-80.1128
"1760","New Canton","US","VA",37.7052,-78.3012
"1761","New Baltimore","US","VA",NA,NA
"1762","Nelson","US","VA",36.5633,-78.7032
"1763","Nellysford","US","VA",37.8873,-78.8808
"1764","Naval Station Norfolk","US","VA",NA,NA
"1765","Naval Base","US","VA",NA,NA
"1766","Nassawadox","US","VA",37.4744,-75.859
"1767","Narrows","US","VA",37.3307,-80.8119
"1768",NA,"US","VA",NA,NA
"1769","N Springfield","US","VA",NA,NA
"1770","N Chesterfld","US","VA",NA,NA
"1771","Mount Vernon","US","VA",NA,NA
"1772","Mount Sidney","US","VA",NA,NA
"1773","Mount Pleasant","US","VA",NA,NA
"1774","Mount Jackson","US","VA",NA,NA
"1775","Mount Holly","US","VA",NA,NA
"1776","Mount Crawford","US","VA",NA,NA
"1777","Moseley","US","VA",37.4755,-77.7824
"1778","Montvale","US","VA",37.3877,-79.7273
"1779","Montross","US","VA",38.0948,-76.8186
"1780","Montpelier","US","VA",37.8187,-77.6834
"1781","Montgomery","US","VA",NA,NA
"1782","Monterey","US","VA",38.4132,-79.5829
"1783","Monroe","US","VA",37.4991,-79.1247
"1784","Moneta","US","VA",37.1832,-79.6192
"1785","Mint Spring","US","VA",NA,NA
"1786","Mineral","US","VA",38.0107,-77.908
"1787","Millville","US","VA",NA,NA
"1788","Millers Tavern","US","VA",NA,NA
"1789","Millboro","US","VA",37.9778,-79.6014
"1790","Milford","US","VA",38.0266,-77.3711
"1791","Midlothian","US","VA",37.5036,-77.6515
"1792","Midland","US","VA",38.5971,-77.7231
"1793","Middletown","US","VA",39.0335,-78.2726
"1794","Middleburg","US","VA",38.9695,-77.7366
"1795","Middlebrook","US","VA",38.0507,-79.2136
"1796","Merrimac","US","VA",NA,NA
"1797","Merrifield","US","VA",NA,NA
"1798","Mendota","US","VA",36.7104,-82.3023
"1799","Melfa","US","VA",37.6495,-75.7428
"1800","Mechanicsvlle","US","VA",NA,NA
"1801","Mechanicsville","US","VA",37.613,-77.3788
"1802","Meadowview","US","VA",36.7613,-81.8596
"1803","McLean","US","VA",38.9368,-77.1849
"1804","McGaheysville","US","VA",38.373,-78.7304
"1805","Max Meadows","US","VA",36.9715,-80.9502
"1806","Mattaponi","US","VA",37.5363,-76.7675
"1807","Mathews","US","VA",37.4378,-76.312
"1808","Mason","US","VA",NA,NA
"1809","Martinsville","US","VA",36.69,-79.8688
"1810","Marshall","US","VA",38.8654,-77.8498
"1811","Marion","US","VA",36.834,-81.5173
"1812","Manquin","US","VA",37.7087,-77.1542
"1813","Manassas Park","US","VA",38.7667,-77.4417
"1814","Manassas","US","VA",38.7512,-77.4711
"1815","Manakin Sabot","US","VA",37.6713,-77.6887
"1816","Manakin","US","VA",NA,NA
"1817","Major","US","VA",NA,NA
"1818","Maidens","US","VA",37.6719,-77.8832
"1819","Madison Heights","US","VA",37.4236,-79.1247
"1820","Madison","US","VA",38.3816,-78.2564
"1821","Lyndhurst","US","VA",38.0292,-78.9435
"1822","Lynchburg","US","VA",37.414,-79.1428
"1823","Luray","US","VA",38.6655,-78.4594
"1824","Lunenburg","US","VA",36.9501,-78.2793
"1825","Low Moor","US","VA",37.7911,-79.8802
"1826","Lovingston","US","VA",37.7636,-78.8705
"1827","Lovettsville","US","VA",39.274,-77.6385
"1828","Louisa","US","VA",38.0255,-78.0038
"1829","Lottsburg","US","VA",37.9614,-76.5184
"1830","Lorton","US","VA",38.7044,-77.2067
"1831","Long Island","US","VA",37.0807,-79.0962
"1832","Locust Hill","US","VA",37.5993,-76.512
"1833","Locust Grove","US","VA",38.3053,-77.8086
"1834","Little Plymouth","US","VA",37.6279,-76.7936
"1835","Little Creek","US","VA",NA,NA
"1836","Linden","US","VA",38.9097,-78.0834
"1837","Lincoln","US","VA",NA,NA
"1838","Lignum","US","VA",38.4178,-77.8304
"1839","Lexington","US","VA",37.7855,-79.4415
"1840","Leesburg","US","VA",39.1157,-77.5653
"1841","Lebanon","US","VA",36.901,-82.0787
"1842","Leader","US","VA",NA,NA
"1843","Lawrenceville","US","VA",36.7617,-77.845
"1844","Laurel Fork","US","VA",36.7188,-80.5115
"1845","Laurel","US","VA",37.6426,-77.5091
"1846","Lansdowne","US","VA",NA,NA
"1847","Langley AFB","US","VA",NA,NA
"1848","Langley","US","VA",NA,NA
"1849","Lanexa","US","VA",37.4229,-76.9078
"1850","Lancaster","US","VA",37.7699,-76.4659
"1851","Lambsburg","US","VA",36.5845,-80.7584
"1852","Lake Ridge","US","VA",38.688,-77.2982
"1853","Lake Frederick","US","VA",NA,NA
"1854","La Crosse","US","VA",36.7006,-78.094
"1855","Korea","US","VA",NA,NA
"1856","Kinsale","US","VA",38.0292,-76.5835
"1857","Kingstowne","US","VA",NA,NA
"1858","King William","US","VA",37.6871,-77.0158
"1859","King George","US","VA",38.268,-77.1835
"1860","King","US","VA",NA,NA
"1861","Kilmarnock","US","VA",37.7102,-76.3801
"1862","Keysville","US","VA",37.0404,-78.4839
"1863","Keswick","US","VA",38.0234,-78.3594
"1864","Kents Store","US","VA",37.8771,-78.1288
"1865","Jonesville","US","VA",36.6887,-83.1123
"1866","Jetersville","US","VA",37.3002,-78.0915
"1867","Jefferson Manor","US","VA",NA,NA
"1868","Jefferson","US","VA",38.8642,-77.1885
"1869","Jarratt","US","VA",36.8186,-77.475
"1870","Jamestown","US","VA",NA,NA
"1871","Ivor","US","VA",36.9046,-76.8987
"1872","Isle of Wight","US","VA",NA,NA
"1873","Irvington","US","VA",37.6621,-76.4192
"1874","Independence","US","VA",36.6224,-81.1507
"1875","Hybla Valley","US","VA",38.7481,-77.0835
"1876","Hurt","US","VA",37.1007,-79.3034
"1877","Hume","US","VA",38.8316,-77.9994
"1878","Huddleston","US","VA",37.1596,-79.4718
"1879","Hot Springs","US","VA",37.9988,-79.8321
"1880","Hopewell","US","VA",37.3039,-77.2869
"1881","Honaker","US","VA",37.0167,-81.9744
"1882","Hollins","US","VA",NA,NA
"1883","Hillsville","US","VA",36.7694,-80.7388
"1884","Highland Springs","US","VA",37.5457,-77.3273
"1885","Herndon","US","VA",38.9697,-77.3856
"1886","Henrico","US","VA",37.518,-77.3779
"1887","Height","US","VA",NA,NA
"1888","Haysi","US","VA",37.2093,-82.2866
"1889","Haymarket","US","VA",38.8124,-77.6369
"1890","Hayes","US","VA",37.2763,-76.5023
"1891","Hartfield","US","VA",37.5475,-76.4408
"1892","Harrisonburg","US","VA",38.4516,-78.8697
"1893","Hardy","US","VA",37.2326,-79.8125
"1894","Hanover","US","VA",37.7688,-77.3711
"1895","Hampton Roads","US","VA",NA,NA
"1896","Hampton","US","VA",37.0278,-76.3451
"1897","Hampden Sydney","US","VA",37.2426,-78.4599
"1898","Hamilton","US","VA",39.1348,-77.664
"1899","Hallwood","US","VA",37.8775,-75.5896
"1900","Halifax","US","VA",36.7657,-78.9287
"1901","Gum Spring","US","VA",37.7778,-77.9003
"1902","Grundy","US","VA",37.281,-82.1029
"1903","Grottoes","US","VA",38.2677,-78.8259
"1904","Gretna","US","VA",36.9533,-79.3598
"1905","Greenway","US","VA",NA,NA
"1906","Great Falls","US","VA",38.9978,-77.2884
"1907","Grayson","US","VA",NA,NA
"1908","Grafton","US","VA",NA,NA
"1909","Goshen","US","VA",37.9885,-79.498
"1910","Gordonsville","US","VA",38.1414,-78.1891
"1911","Goochland","US","VA",37.6833,-77.8853
"1912","Gloucester Point","US","VA",37.2573,-76.4957
"1913","Gloucester Courthouse","US","VA",NA,NA
"1914","Gloucester","US","VA",37.414,-76.5263
"1915","Glen Allen","US","VA",37.6654,-77.5045
"1916","Glasgow","US","VA",37.6307,-79.4492
"1917","Gladys","US","VA",37.1659,-79.0747
"1918","Glade Spring","US","VA",36.7913,-81.7682
"1919","Germantown","US","VA",NA,NA
"1920","Gate City","US","VA",36.6382,-82.5804
"1921","Galax","US","VA",36.666,-80.9265
"1922","Gainesville","US","VA",38.7954,-77.6148
"1923","Fulks Run","US","VA",38.6595,-78.904
"1924","Front Royal","US","VA",38.9179,-78.1935
"1925","Fries","US","VA",36.7166,-80.9788
"1926","Fredericksburg","US","VA",38.3009,-77.4591
"1927","Fredericksbrg","US","VA",NA,NA
"1928","Franklin City","US","VA",NA,NA
"1929","Franklin","US","VA",36.6776,-76.9232
"1930","Franconia","US","VA",38.7818,-77.1474
"1931","Fort Story","US","VA",NA,NA
"1932","Fort Myer","US","VA",38.8824,-77.0808
"1933","Fort Monroe","US","VA",37.0104,-76.3143
"1934","Fort Lee","US","VA",37.2427,-77.3453
"1935","Fort Eustis","US","VA",37.1608,-76.5824
"1936","Fort Chiswell","US","VA",NA,NA
"1937","Fort Belvoir","US","VA",38.6883,-77.1356
"1938","Fort A.P. Hill","US","VA",NA,NA
"1939","Fork Union","US","VA",37.7629,-78.2626
"1940","Forest","US","VA",37.3629,-79.2885
"1941","Floyd","US","VA",36.9118,-80.3203
"1942","Flint Hill","US","VA",38.7654,-78.099
"1943","Fletcher","US","VA",NA,NA
"1944","Fishersville","US","VA",38.0996,-78.9702
"1945","Fishers Hill","US","VA",NA,NA
"1946","Fincastle","US","VA",37.4997,-79.8724
"1947","Fieldale","US","VA",36.699,-79.9369
"1948","Ferrum","US","VA",36.9234,-80.0147
"1949","Farmville","US","VA",37.302,-78.3926
"1950","Falmouth","US","VA",NA,NA
"1951","Falls Church","US","VA",38.8855,-77.1736
"1952","Fairlawn","US","VA",NA,NA
"1953","Fairfield","US","VA",37.88,-79.2883
"1954","Fairfax Station","US","VA",38.8028,-77.3257
"1955","Fairfax","US","VA",38.8418,-77.3089
"1956","Fair Oaks","US","VA",NA,NA
"1957","Exmore","US","VA",37.5318,-75.8228
"1958","Evington","US","VA",37.2349,-79.2863
"1959","Ettrick","US","VA",NA,NA
"1960","Emporia","US","VA",36.6876,-77.5421
"1961","Emory","US","VA",NA,NA
"1962","Elliston","US","VA",37.2165,-80.2316
"1963","Elkwood","US","VA",38.5141,-77.852
"1964","Elkton","US","VA",38.4075,-78.6188
"1965","Elk Creek","US","VA",36.7252,-81.1679
"1966","Edinburg","US","VA",38.8214,-78.5624
"1967","Eastville","US","VA",37.3503,-75.9386
"1968","Earlysville","US","VA",38.154,-78.4809
"1969","Dyke","US","VA",38.2535,-78.5395
"1970","Duty","US","VA",NA,NA
"1971","Dunnsville","US","VA",37.8587,-76.8232
"1972","Dunn Loring","US","VA",38.8955,-77.2252
"1973","Dumfries","US","VA",38.5673,-77.327
"1974","Dulles Town Center","US","VA",NA,NA
"1975","Dulles","US","VA",NA,NA
"1976","Duffield","US","VA",36.7165,-82.795
"1977","Dublin","US","VA",37.1051,-80.6867
"1978","Dryden","US","VA",36.7771,-82.942
"1979","Dry Fork","US","VA",36.7536,-79.403
"1980","Dranesville","US","VA",NA,NA
"1981","Drakes Branch","US","VA",36.9957,-78.6043
"1982","Doswell","US","VA",37.8653,-77.4645
"1983","Disputanta","US","VA",37.1254,-77.228
"1984","Dinwiddie","US","VA",37.0782,-77.5866
"1985","Dillwyn","US","VA",37.5427,-78.4579
"1986","Deltaville","US","VA",37.5551,-76.3272
"1987","Delaware","US","VA",NA,NA
"1988","Delaplane","US","VA",38.9464,-77.9114
"1989","Dayton","US","VA",38.4145,-78.939
"1990","Danville","US","VA",36.586,-79.4172
"1991","Dan","US","VA",NA,NA
"1992","Damascus","US","VA",36.6354,-81.7905
"1993","Dam Neck","US","VA",NA,NA
"1994","Daleville","US","VA",37.4137,-79.9124
"1995","Dale City","US","VA",38.6478,-77.3327
"1996","Dahlgren","US","VA",NA,NA
"1997","Cumberland","US","VA",37.4969,-78.2441
"1998","Culpeper","US","VA",38.4733,-77.9961
"1999","Crystal City","US","VA",NA,NA
"2000","Crozet","US","VA",38.0697,-78.7007
"2001","Crockett","US","VA",36.8789,-81.1937
"2002","Crimora","US","VA",38.1537,-78.8425
"2003","Crewe","US","VA",37.1737,-78.1239
"2004","Craigsville","US","VA",38.0787,-79.3836
"2005","Cowan","US","VA",NA,NA
"2006","Covington","US","VA",37.7935,-79.9959
"2007","Courtland","US","VA",36.7175,-77.0686
"2008","Copper Hill","US","VA",37.0859,-80.1267
"2009","Concord","US","VA",37.3447,-78.9753
"2010","Community","US","VA",NA,NA
"2011","Columbia","US","VA",37.7525,-78.1615
"2012","Colonial Heights","US","VA",37.2542,-77.4111
"2013","Colonial Beach","US","VA",38.2546,-76.9639
"2014","Collinsville","US","VA",36.72,-79.9128
"2015","Coeburn","US","VA",36.9432,-82.4629
"2016","Cloverdale","US","VA",37.3698,-79.9081
"2017","Clintwood","US","VA",37.1487,-82.4597
"2018","Clinchport","US","VA",36.6776,-82.7411
"2019","Clifton Forge","US","VA",37.8161,-79.8246
"2020","Clifton","US","VA",38.7812,-77.3847
"2021","Clifford","US","VA",NA,NA
"2022","Clear Brook","US","VA",39.2562,-78.0962
"2023","Clarksville","US","VA",36.6244,-78.5571
"2024","Churchland","US","VA",NA,NA
"2025","Church View","US","VA",37.6856,-76.7246
"2026","Christiansburg","US","VA",37.1301,-80.4084
"2027","Christiansbrg","US","VA",NA,NA
"2028","Chincoteague Island","US","VA",NA,NA
"2029","Chincoteague","US","VA",37.9348,-75.375
"2030","Chilhowie","US","VA",36.8001,-81.6799
"2031","Chesterfield","US","VA",37.3776,-77.5082
"2032","Chester","US","VA",37.3575,-77.4423
"2033","Chesapeake","US","VA",36.7143,-76.2478
"2034","Cheapside","US","VA",NA,NA
"2035","Chatham","US","VA",36.8254,-79.3983
"2036","Chase City","US","VA",36.7988,-78.4603
"2037","Charlottesvle","US","VA",NA,NA
"2038","Charlottesville","US","VA",38.0321,-78.4776
"2039","Charlotte Court House","US","VA",37.0568,-78.6341
"2040","Charles City","US","VA",37.342,-77.0725
"2041","Chantilly","US","VA",38.8836,-77.4397
"2042","Centreville","US","VA",38.8374,-77.4433
"2043","Centerville","US","VA",NA,NA
"2044","Cedar Bluff","US","VA",37.0863,-81.7602
"2045","Catharpin","US","VA",38.8539,-77.5687
"2046","Catawba","US","VA",37.3819,-80.1126
"2047","Castlewood","US","VA",36.8893,-82.2799
"2048","Castleton","US","VA",38.613,-78.0657
"2049","Carrollton","US","VA",36.938,-76.5337
"2050","Carmel","US","VA",NA,NA
"2051","Caret","US","VA",37.9812,-76.957
"2052","Capron","US","VA",36.7068,-77.2023
"2053","Cape Charles","US","VA",37.2671,-76.017
"2054","Cana","US","VA",36.5894,-80.6718
"2055","Campbell","US","VA",NA,NA
"2056","Callaway","US","VA",37.017,-80.0595
"2057","Burtonville","US","VA",NA,NA
"2058","Burkeville","US","VA",37.1892,-78.1981
"2059","Burke","US","VA",38.7932,-77.2723
"2060","Bumpass","US","VA",37.9643,-77.7373
"2061","Buena Vista","US","VA",37.735,-79.354
"2062","Buckingham","US","VA",37.5524,-78.5497
"2063","Buchanan","US","VA",37.5274,-79.6802
"2064","Brunswick","US","VA",NA,NA
"2065","Brookneal","US","VA",37.052,-78.9466
"2066","Brooke","US","VA",NA,NA
"2067","Broadlands","US","VA",NA,NA
"2068","Broad Run","US","VA",38.8247,-77.7182
"2069","Bristow","US","VA",38.7326,-77.5458
"2070","Bristol","US","VA",36.5985,-82.1808
"2071","Bridgewater","US","VA",38.3835,-78.9751
"2072","Bremo Bluff","US","VA",37.7267,-78.2974
"2073","Brambleton","US","VA",NA,NA
"2074","Bracey","US","VA",36.5979,-78.1461
"2075","Boydton","US","VA",36.6674,-78.3884
"2076","Boyce","US","VA",39.0932,-78.0599
"2077","Bowling Green","US","VA",38.0519,-77.3477
"2078","Bluemont","US","VA",39.1094,-77.8304
"2079","Bluefield","US","VA",37.2531,-81.272
"2080","Blue Ridge","US","VA",37.3815,-79.8035
"2081","Bloxom","US","VA",37.8292,-75.6233
"2082","Bland","US","VA",37.1025,-81.1165
"2083","Blairs","US","VA",36.6814,-79.3718
"2084","Blackstone","US","VA",37.0827,-77.9955
"2085","Blacksburg","US","VA",37.2263,-80.4106
"2086","Big Stone Gap","US","VA",36.8683,-82.7747
"2087","Big Island","US","VA",37.5367,-79.3643
"2088","Beverley Hills","US","VA",NA,NA
"2089","Berryville","US","VA",39.1514,-77.9829
"2090","Berkley","US","VA",NA,NA
"2091","Bellevue","US","VA",NA,NA
"2092","Belle Haven","US","VA",37.5536,-75.8197
"2093","Belle Aire","US","VA",NA,NA
"2094","Bedford","US","VA",37.3343,-79.5229
"2095","Beaverdam","US","VA",37.9414,-77.6538
"2096","Beaumont","US","VA",NA,NA
"2097","Bealeton","US","VA",38.576,-77.7649
"2098","Bastian","US","VA",37.1521,-81.15
"2099","Bassett","US","VA",36.7598,-79.9897
"2100","Barhamsville","US","VA",37.4557,-76.8402
"2101","Barboursville","US","VA",38.1705,-78.2799
"2102","Ballston","US","VA",NA,NA
"2103","Baileys Crossroads","US","VA",38.8503,-77.1299
"2104","Bailey's Crossroads","US","VA",38.8503,-77.1299
"2105","Aylett","US","VA",37.7739,-77.1117
"2106","Atkins","US","VA",36.8668,-81.4231
"2107","Ashland","US","VA",37.7589,-77.4793
"2108","Ashburn","US","VA",39.0516,-77.4832
"2109","Arrington","US","VA",37.683,-78.9012
"2110","Arlington","US","VA",38.8905,-77.0863
"2111","Arcola","US","VA",38.9561,-77.5395
"2112","Appomattox","US","VA",37.3554,-78.8262
"2113","Annandale","US","VA",38.8318,-77.1953
"2114","Amissville","US","VA",38.6813,-78.006
"2115","Amherst","US","VA",37.5852,-79.052
"2116","Amelia Ct Hse","US","VA",NA,NA
"2117","Amelia Court House","US","VA",37.3421,-77.9806
"2118","Alton","US","VA",36.5798,-78.9975
"2119","Altavista","US","VA",37.1092,-79.2892
"2120","Alleghany","US","VA",NA,NA
"2121","Alexandria","US","VA",38.8046,-77.0434
"2122","Aldie","US","VA",38.978,-77.6503
"2123","Alberta","US","VA",36.8635,-77.886
"2124","Afton","US","VA",38.0331,-78.8392
"2125","Accomac","US","VA",37.7197,-75.6698
"2126","Abingdon","US","VA",36.7105,-81.9752
"2127","Woods Cross","US","UT",40.8739,-111.902
"2128","Woodruff","US","UT",41.5213,-111.1629
"2129","Woodland Hills","US","UT",40.0253,-111.6537
"2130","Williams","US","UT",NA,NA
"2131","Willard","US","UT",41.4082,-112.0375
"2132","West Valley City","US","UT",40.6942,-111.9579
"2133","West Point","US","UT",41.1181,-112.0882
"2134","West Ogden","US","UT",NA,NA
"2135","West Jordan","US","UT",40.6074,-111.9388
"2136","West Haven","US","UT",41.222,-112.0295
"2137","West Bountiful","US","UT",40.8992,-111.9021
"2138","Wendover","US","UT",40.7363,-114.041
"2139","Wellsville","US","UT",41.6387,-111.9337
"2140","Washington Terrace","US","UT",41.1829,-111.9741
"2141","Washington","US","UT",37.1303,-113.5094
"2142","Wanship","US","UT",NA,NA
"2143","Wales","US","UT",39.4879,-111.6351
"2144","W Valley City","US","UT",NA,NA
"2145","Virgin","US","UT",37.2036,-113.1867
"2146","Vineyard","US","UT",40.2971,-111.7451
"2147","Veyo","US","UT",37.3415,-113.6932
"2148","Vernon","US","UT",40.0919,-112.4308
"2149","Vernal","US","UT",40.4557,-109.5288
"2150","Utahn","US","UT",NA,NA
"2151","Utah Valley","US","UT",NA,NA
"2152","Upper Valley","US","UT",NA,NA
"2153","University","US","UT",NA,NA
"2154","Union","US","UT",NA,NA
"2155","Trenton","US","UT",41.9176,-111.9461
"2156","Tremonton","US","UT",41.719,-112.1655
"2157","Toquerville","US","UT",37.2542,-113.2851
"2158","Tooele","US","UT",40.5336,-112.2985
"2159","The Valleys","US","UT",NA,NA
"2160","Thanksgiving Point","US","UT",NA,NA
"2161","Terminal","US","UT",NA,NA
"2162","Taylorsville","US","UT",40.6565,-111.9389
"2163","Syracuse","US","UT",41.0888,-112.0646
"2164","Sundance","US","UT",NA,NA
"2165","Sugar House","US","UT",NA,NA
"2166","Stansbury park","US","UT",NA,NA
"2167","Springville","US","UT",40.1661,-111.6106
"2168","Springdale","US","UT",37.1834,-113.0035
"2169","Spanish Fork","US","UT",40.1092,-111.6548
"2170","South Salt Lake","US","UT",40.7179,-111.8829
"2171","South Rim","US","UT",NA,NA
"2172","South Ogden","US","UT",41.1919,-111.9676
"2173","South Jordan","US","UT",40.5499,-111.9387
"2174","Snyderville","US","UT",NA,NA
"2175","Snowbird","US","UT",NA,NA
"2176","Smithfield","US","UT",41.8382,-111.8326
"2177","Skull Valley","US","UT",NA,NA
"2178","Sigurd","US","UT",38.8419,-111.9674
"2179","Saratoga Springs","US","UT",40.3472,-111.909
"2180","Santaquin","US","UT",39.9756,-111.78
"2181","Santa Clara","US","UT",37.1329,-113.6537
"2182","Sandy","US","UT",NA,NA
"2183","Salt Lake Valley","US","UT",NA,NA
"2184","Salt Lake Cty","US","UT",NA,NA
"2185","Salt Lake City","US","UT",40.7603,-111.8882
"2186","Salt Lake","US","UT",NA,NA
"2187","Salina","US","UT",38.9587,-111.8601
"2188","Saint George","US","UT",37.1091,-113.5833
"2189","S Salt Lake","US","UT",NA,NA
"2190","Roy","US","UT",41.1726,-112.026
"2191","Rose Park","US","UT",NA,NA
"2192","Roosevelt","US","UT",40.2967,-109.9896
"2193","Rocky Ridge","US","UT",NA,NA
"2194","Rock Springs","US","UT",NA,NA
"2195","Riverton","US","UT",40.5205,-111.9317
"2196","Riverdale","US","UT",41.1767,-111.9927
"2197","Richmond","US","UT",41.9222,-111.8144
"2198","Richfield","US","UT",38.7716,-112.0848
"2199","Redmond","US","UT",39.0054,-111.8617
"2200","Provo","US","UT",40.2337,-111.6685
"2201","Providence","US","UT",41.71,-111.8216
"2202","Price","US","UT",39.601,-110.811
"2203","Plymouth","US","UT",41.8744,-112.1498
"2204","Pleasant View","US","UT",41.3195,-111.9908
"2205","Pleasant Grove","US","UT",40.3632,-111.7389
"2206","Plain City","US","UT",41.2979,-112.0801
"2207","Peter","US","UT",NA,NA
"2208","Perry","US","UT",41.4551,-112.0446
"2209","Peach Tree","US","UT",NA,NA
"2210","Payson","US","UT",40.0436,-111.7387
"2211","Parowan","US","UT",37.8435,-112.8276
"2212","Park Wood","US","UT",NA,NA
"2213","Park City","US","UT",40.6439,-111.4943
"2214","Paradise","US","UT",41.5665,-111.8314
"2215","Panguitch","US","UT",37.8228,-112.4339
"2216","Orem","US","UT",40.2988,-111.6957
"2217","Orderville","US","UT",37.276,-112.6381
"2218","Ogden","US","UT",41.2224,-111.9705
"2219","Oasis","US","UT",NA,NA
"2220","Oakley","US","UT",40.7149,-111.2977
"2221","North Salt Lake","US","UT",40.8404,-111.911
"2222","North Ogden","US","UT",41.3058,-111.9643
"2223","North Logan","US","UT",41.7859,-111.8338
"2224","Nibley","US","UT",41.6758,-111.8334
"2225","New Harmony","US","UT",37.478,-113.3091
"2226","Nephi","US","UT",39.71,-111.8351
"2227",NA,"US","UT",NA,NA
"2228","Myton","US","UT",40.1958,-110.0705
"2229","Murray","US","UT",40.6621,-111.8883
"2230","Mount Pleasant","US","UT",NA,NA
"2231","Morgan","US","UT",41.0358,-111.6783
"2232","Monticello","US","UT",37.871,-109.3429
"2233","Monroe","US","UT",38.6311,-112.1214
"2234","Mona","US","UT",39.8191,-111.8562
"2235","Moab","US","UT",38.5733,-109.5497
"2236","Millcreek","US","UT",40.687,-111.875
"2237","Midway","US","UT",40.5122,-111.4755
"2238","Midvalley","US","UT",NA,NA
"2239","Midvale","US","UT",40.6108,-111.9087
"2240","Mendon","US","UT",41.7079,-111.9786
"2241","Meadow Lane","US","UT",NA,NA
"2242","Marysvale","US","UT",38.4478,-112.2302
"2243","Mapleton","US","UT",40.1304,-111.5783
"2244","Manila","US","UT",40.988,-109.7227
"2245","Magna","US","UT",40.6965,-112.0902
"2246","Logan","US","UT",41.7369,-111.8348
"2247","Lindon","US","UT",40.3409,-111.7194
"2248","Lehi","US","UT",40.3897,-111.8475
"2249","Leamington","US","UT",39.5353,-112.28
"2250","Layton","US","UT",41.066,-111.961
"2251","Lapoint","US","UT",40.4037,-109.7957
"2252","Lake Powell","US","UT",NA,NA
"2253","Lake Point","US","UT",NA,NA
"2254","Knolls","US","UT",NA,NA
"2255","Kimball Junction","US","UT",NA,NA
"2256","Kearns","US","UT",40.6531,-111.9698
"2257","Kaysville","US","UT",41.0349,-111.9375
"2258","Kanab","US","UT",37.0481,-112.5279
"2259","Kamas","US","UT",40.6431,-111.2797
"2260","Jordan","US","UT",NA,NA
"2261","Jensen","US","UT",40.3697,-109.3349
"2262","Ivins","US","UT",37.1684,-113.6718
"2263","Hyrum","US","UT",41.634,-111.851
"2264","Hyde Park","US","UT",41.7991,-111.8206
"2265","Hurricane","US","UT",37.177,-113.2849
"2266","Huntsville","US","UT",41.2607,-111.7713
"2267","Huntington","US","UT",39.334,-110.9647
"2268","Hooper","US","UT",41.1611,-112.1229
"2269","Honeyville","US","UT",41.6367,-112.0796
"2270","Holladay","US","UT",40.6714,-111.8246
"2271","Holden","US","UT",39.0969,-112.2709
"2272","Hinckley","US","UT",39.3307,-112.666
"2273","Hill AFB","US","UT",41.1251,-111.9896
"2274","Highland","US","UT",40.4209,-111.7878
"2275","Herriman","US","UT",40.5142,-112.0335
"2276","Heber City","US","UT",40.5088,-111.4134
"2277","Heber","US","UT",NA,NA
"2278","Harrisville","US","UT",41.2817,-111.985
"2279","Gunnison","US","UT",39.1517,-111.8183
"2280","Greenwich","US","UT",38.4332,-111.9225
"2281","Grantsville","US","UT",40.5999,-112.4668
"2282","Granite","US","UT",NA,NA
"2283","Glenwood Spring","US","UT",NA,NA
"2284","Garland","US","UT",41.7405,-112.1626
"2285","Garfield","US","UT",NA,NA
"2286","Garden City","US","UT",41.9503,-111.3933
"2287","Fruit Heights","US","UT",41.0204,-111.9068
"2288","Francis","US","UT",40.6105,-111.2802
"2289","Foothill","US","UT",NA,NA
"2290","Fillmore","US","UT",38.97,-112.3237
"2291","Ferron","US","UT",39.0883,-111.1331
"2292","Farr West","US","UT",41.2962,-112.0277
"2293","Farmington","US","UT",40.9831,-111.8876
"2294","Ephraim","US","UT",39.3613,-111.5871
"2295","Enterprise","US","UT",37.5736,-113.7136
"2296","Elsinore","US","UT",38.683,-112.1477
"2297","Eden","US","UT",41.2983,-111.8154
"2298","East Valley","US","UT",NA,NA
"2299","East Carbon","US","UT",39.5425,-110.4188
"2300","Eagle Mountain","US","UT",40.3802,-111.988
"2301","Dutch John","US","UT",40.9312,-109.3969
"2302","Dugway Proving Ground","US","UT",NA,NA
"2303","Dugway","US","UT",40.2193,-112.7451
"2304","Duchesne","US","UT",40.1637,-110.4014
"2305","Draper","US","UT",40.5247,-111.8663
"2306","Delta","US","UT",39.3524,-112.5826
"2307","Davis","US","UT",NA,NA
"2308","Cross","US","UT",NA,NA
"2309","Creek Canyon","US","UT",NA,NA
"2310","Cottonwood Heights","US","UT",40.6261,-111.8556
"2311","Cottonwood","US","UT",NA,NA
"2312","Corinne","US","UT",41.5513,-112.1104
"2313","Colorado","US","UT",NA,NA
"2314","Coalville","US","UT",40.9182,-111.3997
"2315","Clinton","US","UT",41.1399,-112.0638
"2316","Clearfield","US","UT",41.1138,-112.0221
"2317","Clarkston","US","UT",41.921,-112.045
"2318","City of Woods Cross","US","UT",NA,NA
"2319","Central","US","UT",37.417,-113.6306
"2320","Centerville","US","UT",40.9198,-111.879
"2321","Centerfield","US","UT",39.1276,-111.8192
"2322","Cedar Hills","US","UT",40.4154,-111.7649
"2323","Cedar City","US","UT",37.678,-113.0618
"2324","Carbonville","US","UT",NA,NA
"2325","Call","US","UT",NA,NA
"2326","Cache Valley","US","UT",NA,NA
"2327","Brighton","US","UT",NA,NA
"2328","Brigham City","US","UT",41.5117,-112.0157
"2329","Bountiful","US","UT",40.8817,-111.8784
"2330","Bluffdale","US","UT",40.4936,-111.9388
"2331","Bluff","US","UT",37.2866,-109.5467
"2332","Blanding","US","UT",37.6254,-109.4771
"2333","Bingham Canyon","US","UT",40.5661,-112.0969
"2334","Beaver","US","UT",38.2762,-112.6412
"2335","Bay","US","UT",NA,NA
"2336","Bacchus","US","UT",NA,NA
"2337","Axtell","US","UT",39.0549,-111.8219
"2338","Aurora","US","UT",38.9186,-111.9352
"2339","Annabella","US","UT",38.7083,-112.0618
"2340","American Fork","US","UT",40.3787,-111.7975
"2341","Altonah","US","UT",40.4014,-110.2924
"2342","Altamont","US","UT",40.3594,-110.2843
"2343","Alpine","US","UT",40.4539,-111.7778
